DBN,SCHOOL NAME,Num of SAT Test Takers,SAT Critical Reading Avg. Score,SAT Math Avg. Score,SAT Writing Avg. Score,Composite SAT Avg. Score,ell_num,ell_percent,sped_num,sped_percent,ctt_num,selfcontained_num,asian_num,asian_per,black_num,black_per,hispanic_num,hispanic_per,white_num,white_per,male_num,male_per,female_num,female_per,Latitude,Longitude
01M292,HENRY STREET SCHOOL FOR INTERNATIONAL STUDIES,29,355,404,363,1122,94,22.3,105,24.9,34,35,59,14,123,29.1,227,53.8,7,1.7,259,61.4,163,38.6,40.7134455,-73.9860332
01M448,UNIVERSITY NEIGHBORHOOD HIGH SCHOOL,91,383,423,366,1172,83,21.1,86,21.8,55,10,115,29.2,89,22.6,181,45.9,9,2.3,226,57.4,168,42.6,40.7123149,-73.9839547
01M450,EAST SIDE COMMUNITY SCHOOL,70,377,402,370,1149,30,5,158,26.4,91,19,58,9.7,143,23.9,331,55.4,62,10.4,327,54.7,271,45.3,40.7293824,-73.982502
01M458,FORSYTH SATELLITE ACADEMY,7,414,401,359,1174,9,4,20,8.9,3,0,5,2.2,77,34.4,133,59.4,8,3.6,97,43.3,127,56.7,40.7221984,-73.9907155
01M509,MARTA VALLE HIGH SCHOOL,44,390,433,384,1207,41,11.2,95,25.9,28,36,34,9.3,116,31.6,209,56.9,6,1.6,170,46.3,197,53.7,40.7205149,-73.9856828
01M515,LOWER EAST SIDE PREPARATORY HIGH SCHOOL,112,332,557,316,1205,453,80.6,7,1.2,0,2,476,84.7,29,5.2,50,8.9,5,0.9,302,53.7,260,46.3,40.720534,-73.985986
01M539,"NEW EXPLORATIONS INTO SCIENCE, TECHNOLOGY AND MATH HIGH SCHOOL",159,522,574,525,1621,4,0.2,43,2.7,2,0,448,27.8,189,11.7,229,14.2,725,44.9,794,49.2,819,50.8,40.7191667,-73.9797222
01M650,CASCADES HIGH SCHOOL,18,417,418,411,1246,7,3.2,15,6.9,1,0,1,0.5,99,45.4,108,49.5,9,4.1,87,39.9,131,60.1,40.7221767,-73.9906357
01M696,BARD HIGH SCHOOL EARLY COLLEGE,130,624,604,628,1856,1,0.2,5,0.8,0,0,93,15.1,93,15.1,112,18.2,307,49.8,193,31.3,424,68.7,40.7182547,-73.9760185
02M047,47 THE AMERICAN SIGN LANGUAGE AND ENGLISH SECONDARY SCHOOL,16,395,400,387,1182,14,8,56,32.2,34,10,3,1.7,56,32.2,103,59.2,11,6.3,74,42.5,100,57.5,40.7382609,-73.9812096
02M288,FOOD AND FINANCE HIGH SCHOOL,62,409,393,392,1194,9,2.1,80,18.5,69,4,13,3,191,44.1,206,47.6,21,4.8,195,45,238,55,40.7655929,-73.9929852
02M294,ESSEX STREET ACADEMY,53,394,384,378,1156,13,3.8,70,20.4,41,2,14,4.1,95,27.7,208,60.6,26,7.6,183,53.4,160,46.6,40.717321,-73.989323
02M296,HIGH SCHOOL OF HOSPITALITY MANAGEMENT,58,374,375,362,1111,40,9.5,62,14.8,30,17,22,5.3,111,26.5,277,66.1,9,2.1,135,32.2,284,67.8,40.7655356,-73.9931625
02M298,PACE HIGH SCHOOL,85,423,438,432,1293,9,2.2,57,13.8,45,3,42,10.1,134,32.4,174,42,16,3.9,181,43.7,233,56.3,40.7161,-73.9941
02M300,"URBAN ASSEMBLY SCHOOL OF DESIGN AND CONSTRUCTION, THE",48,404,449,416,1269,47,10.9,86,20,63,12,26,6,126,29.2,255,59.2,21,4.9,323,74.9,108,25.1,40.765536,-73.993163
02M303,"FACING HISTORY SCHOOL, THE",76,353,358,340,1051,94,20.8,98,21.7,78,9,3,0.7,106,23.5,330,73.2,11,2.4,228,50.6,223,49.4,40.7655356,-73.9931625
02M305,"URBAN ASSEMBLY ACADEMY OF GOVERNMENT AND LAW, THE",50,375,388,385,1148,19,6.1,53,17,40,5,12,3.8,130,41.7,158,50.6,11,3.5,137,43.9,175,56.1,40.717321,-73.989323
02M308,LOWER MANHATTAN ARTS ACADEMY,40,403,392,405,1200,13,3.9,83,24.7,47,3,32,9.5,103,30.7,187,55.7,12,3.6,134,39.9,202,60.1,40.7169645,-73.9895323
02M313,"JAMES BALDWIN SCHOOL, THE: A SCHOOL FOR EXPEDITIONARY LEARNING",69,408,390,390,1188,12,4.8,32,12.9,17,1,10,4,85,34.3,135,54.4,16,6.5,130,52.4,118,47.6,40.743248,-74.002695
02M316,"URBAN ASSEMBLY SCHOOL OF BUSINESS FOR YOUNG WOMEN, THE",42,373,370,384,1127,10,2.6,59,15.6,41,2,13,3.4,177,46.8,183,48.4,5,1.3,0,0,378,100,40.7054423,-74.0128882
02M374,GRAMERCY ARTS HIGH SCHOOL,60,391,391,394,1176,15,3,61,12.3,54,0,14,2.8,224,45.3,223,45.1,33,6.7,130,26.3,365,73.7,40.7353879,-73.987228
02M376,NYC ISCHOOL,92,473,483,479,1435,2,0.5,47,10.9,18,1,50,11.5,89,20.6,186,43,104,24,211,48.7,222,51.3,40.7244276,-74.0048709
02M394,EMMA LAZARUS HIGH SCHOOL,79,319,512,357,1188,207,82.8,0,0,,,156,62.4,18,7.2,66,26.4,10,4,128,51.2,122,48.8,40.7165187,-73.993222
02M400,HIGH SCHOOL FOR ENVIRONMENTAL STUDIES,263,465,493,461,1419,99,7.1,201,14.4,70,47,233,16.7,206,14.8,797,57.2,155,11.1,703,50.4,691,49.6,40.7679759,-73.9881796
02M407,INSTITUTE FOR COLLABORATIVE EDUCATION,54,492,465,467,1424,2,0.4,43,8.8,3,2,31,6.3,50,10.2,86,17.6,267,54.6,270,55.2,219,44.8,40.7326759,-73.9825764
02M408,PROFESSIONAL PERFORMING ARTS HIGH SCHOOL,94,509,490,523,1522,10,2,16,3.2,1,0,35,7,96,19.1,119,23.7,210,41.8,127,25.3,375,74.7,40.7615598,-73.9884908
02M411,BARUCH COLLEGE CAMPUS HIGH SCHOOL,104,496,563,518,1577,7,1.6,10,2.3,0,0,262,60.6,25,5.8,63,14.6,81,18.8,190,44,242,56,40.7418485,-73.985909
02M412,N.Y.C. LAB SCHOOL FOR COLLABORATIVE STUDIES,114,537,590,550,1677,9,1.6,87,15,71,0,170,29.4,49,8.5,81,14,266,45.9,272,47,307,53,40.7425709,-74.0023709
02M413,SCHOOL OF THE FUTURE HIGH SCHOOL,66,517,533,515,1565,14,2.1,98,14.6,15,0,108,16,83,12.3,175,26,256,38,342,50.8,331,49.2,40.7390867,-73.9853658
02M414,N.Y.C. MUSEUM SCHOOL,103,468,492,459,1419,2,0.5,41,9.4,22,0,144,33,51,11.7,174,39.9,67,15.4,185,42.4,251,57.6,40.7425709,-74.0023709
02M416,ELEANOR ROOSEVELT HIGH SCHOOL,127,572,594,592,1758,1,0.2,6,1.2,0,0,87,17.2,28,5.5,59,11.6,323,63.7,165,32.5,342,67.5,40.7703,-73.9533
02M418,MILLENNIUM HIGH SCHOOL,144,528,553,533,1614,1,0.2,57,9.1,28,0,188,30,55,8.8,136,21.7,225,35.9,239,38.2,387,61.8,40.704606,-74.011444
02M419,LANDMARK HIGH SCHOOL,62,390,399,381,1170,66,15.7,79,18.8,57,7,22,5.2,76,18.1,315,74.8,8,1.9,204,48.5,217,51.5,40.7431223,-74.0025077
02M420,HIGH SCHOOL FOR HEALTH PROFESSIONS AND HUMAN SERVICES,336,429,449,428,1306,70,4,192,10.9,126,12,363,20.5,431,24.4,878,49.7,93,5.3,520,29.4,1248,70.6,40.7324847,-73.9827222
02M425,LEADERSHIP AND PUBLIC SERVICE HIGH SCHOOL,84,416,426,391,1233,33,5.4,113,18.6,32,45,49,8.1,185,30.5,329,54.2,40,6.6,280,46.1,327,53.9,40.7089611,-74.0124334
02M429,LEGACY SCHOOL FOR INTEGRATED STUDIES,29,356,357,349,1062,24,8.2,66,22.4,30,20,4,1.4,133,45.2,151,51.4,5,1.7,144,49,150,51,40.7364053,-73.9957205
02M439,MANHATTAN VILLAGE ACADEMY,95,441,473,458,1372,16,3.7,35,8.2,10,2,27,6.3,72,16.8,308,71.8,21,4.9,165,38.5,264,61.5,40.7418899,-73.9923147
02M440,BAYARD RUSTIN EDUCATIONAL COMPLEX,59,378,365,368,1111,54,26,28,13.5,11,9,13,6.3,58,27.9,130,62.5,5,2.4,133,63.9,75,36.1,40.7433679,-74.0025474
02M449,VANGUARD HIGH SCHOOL,72,395,416,388,1199,27,6.1,77,17.3,51,7,44,9.9,114,25.7,262,59,20,4.5,205,46.2,239,53.8,40.7654,-73.9597
02M459,MANHATTAN INTERNATIONAL HIGH SCHOOL,49,376,460,391,1227,252,77.5,1,0.3,0,0,109,33.5,48,14.8,120,36.9,47,14.5,144,44.3,181,55.7,40.7657337,-73.9598154
02M460,WASHINGTON IRVING HIGH SCHOOL,151,373,387,360,1120,192,18.6,177,17.2,44,80,50,4.8,354,34.3,601,58.2,24,2.3,490,47.5,542,52.5,40.7355487,-73.9874908
02M475,STUYVESANT HIGH SCHOOL,832,679,735,682,2096,0,0,14,0.4,0,0,2377,72.1,40,1.2,80,2.4,780,23.7,1956,59.3,1341,40.7,40.7179842,-74.0138707
02M489,HIGH SCHOOL OF ECONOMICS AND FINANCE,167,443,489,442,1374,51,6.3,96,11.9,46,12,201,24.8,182,22.5,352,43.5,71,8.8,441,54.5,368,45.5,40.7092906,-74.0123296
02M500,UNITY CENTER FOR URBAN TECHNOLOGIES,25,370,349,351,1070,37,15.6,78,32.9,37,14,9,3.8,83,35,131,55.3,6,2.5,148,62.4,89,37.6,40.7464213,-73.9811631
02M519,TALENT UNLIMITED HIGH SCHOOL,81,469,472,475,1416,1,0.2,17,3.5,0,0,22,4.5,177,36,193,39.3,97,19.8,105,21.4,386,78.6,40.7660749,-73.9600658
02M520,MURRY BERGTRAUM HIGH SCHOOL FOR BUSINESS CAREERS,264,407,440,393,1240,212,10.2,292,14.1,119,108,218,10.5,828,39.9,965,46.6,48,2.3,1017,49.1,1056,50.9,40.7113418,-74.0019945
02M529,JACQUELINE KENNEDY ONASSIS HIGH SCHOOL,131,414,425,400,1239,71,9.8,99,13.7,37,30,37,5.1,164,22.7,506,69.9,13,1.8,294,40.6,430,59.4,40.7576542,-73.9834089
02M531,REPERTORY COMPANY HIGH SCHOOL FOR THEATRE ARTS,42,429,404,420,1253,1,0.5,11,5.1,1,0,3,1.4,104,47.9,92,42.4,16,7.4,46,21.2,171,78.8,40.7560912,-73.9845066
02M542,MANHATTAN BRIDGES HIGH SCHOOL,66,336,378,344,1058,393,72.6,9,1.7,0,5,1,0.2,0,0,540,99.8,0,0,278,51.4,263,48.6,40.7652446,-73.9927375
02M543,NEW DESIGN HIGH SCHOOL,73,391,395,382,1168,23,5.4,74,17.5,44,9,16,3.8,128,30.3,263,62.2,11,2.6,162,38.3,261,61.7,40.7173162,-73.989318
02M544,INDEPENDENCE HIGH SCHOOL,14,389,371,335,1095,15,3.8,45,11.5,2,2,17,4.3,131,33.5,233,59.6,8,2,200,51.2,191,48.8,40.7681,-73.9891
02M545,HIGH SCHOOL FOR DUAL LANGUAGE AND ASIAN STUDIES,78,412,581,431,1424,135,38.2,8,2.3,0,0,316,89.5,12,3.4,14,4,8,2.3,181,51.3,172,48.7,40.7173162,-73.989318
02M550,LIBERTY HIGH SCHOOL ACADEMY FOR NEWCOMERS,26,368,436,352,1156,358,90.2,8,2,0,0,102,25.7,79,19.9,167,42.1,47,11.8,242,61,155,39,40.7419393,-74.0002031
02M551,THE URBAN ASSEMBLY NEW YORK HARBOR SCHOOL,77,405,423,384,1212,18,4.2,77,17.9,41,12,10,2.3,161,37.4,212,49.3,44,10.2,262,60.9,168,39.1,40.6907613,-74.0204085
02M560,HIGH SCHOOL M560 s CITY AS SCHOOL,56,498,440,477,1415,8,1.3,56,9.3,15,1,29,4.8,228,37.7,235,38.8,105,17.4,264,43.6,341,56.4,40.7291,-74.0061
02M565,URBAN ACADEMY LABORATORY HIGH SCHOOL,30,527,508,512,1547,2,1.3,0,0,,,8,5.1,53,33.8,60,38.2,32,20.4,64,40.8,93,59.2,40.7653683,-73.9596962
02M570,SATELLITE ACADEMY HIGH SCHOOL,33,350,337,345,1032,16,6.5,35,14.1,15,2,4,1.6,87,35.1,148,59.7,7,2.8,96,38.7,152,61.3,40.7475241,-73.990437
02M575,MANHATTAN COMPREHENSIVE NIGHT AND DAY HIGH SCHOOL,121,345,517,343,1205,484,60,19,2.4,5,4,285,35.3,250,31,228,28.3,40,5,453,56.1,354,43.9,40.7326748,-73.9843188
02M580,RICHARD R. GREEN HIGH SCHOOL OF TEACHING,84,408,384,403,1195,39,6.4,133,21.8,68,16,14,2.3,214,35.1,362,59.3,14,2.3,199,32.6,411,67.4,40.7054431,-74.0129291
02M586,HARVEY MILK HIGH SCHOOL,9,458,416,429,1303,1,1.5,15,22.1,11,0,4,5.9,26,38.2,27,39.7,11,16.2,32,47.1,36,52.9,40.72977,-73.99271
02M600,THE HIGH SCHOOL OF FASHION INDUSTRIES,335,423,423,411,1257,45,2.8,184,11.5,71,42,60,3.8,626,39.1,836,52.3,66,4.1,116,7.3,1483,92.7,40.74566,-73.996412
02M605,HUMANITIES PREPARATORY ACADEMY,36,426,403,426,1255,2,1,13,6.8,3,0,14,7.3,42,21.9,111,57.8,22,11.5,82,42.7,110,57.3,40.7432479,-74.0025567
02M615,CHELSEA CAREER AND TECHNICAL EDUCATION HIGH SCHOOL,83,399,418,390,1207,29,6.2,73,15.7,36,10,33,7.1,138,29.6,282,60.5,7,1.5,303,65,163,35,40.7245689,-74.0048241
02M620,NORMAN THOMAS HIGH SCHOOL,154,370,379,359,1108,218,19.3,175,15.5,65,66,18,1.6,289,25.6,796,70.6,22,2,586,52,541,48,40.7463214,-73.9811295
02M625,HIGH SCHOOL OF GRAPHIC COMMUNICATION ARTS,191,395,382,376,1153,131,9.1,246,17.2,77,78,45,3.1,434,30.3,914,63.8,37,2.6,667,46.5,766,53.5,40.7639856,-73.9903637
02M630,ART AND DESIGN HIGH SCHOOL,270,444,441,430,1315,22,1.6,149,11.1,52,32,121,9,360,26.8,685,51,169,12.6,628,46.7,716,53.3,40.7591326,-73.9664438
02M655,LIFE SCIENCES SECONDARY SCHOOL,61,409,424,403,1236,57,7.9,141,19.7,43,43,24,3.3,205,28.6,461,64.3,17,2.4,370,51.6,347,48.4,40.7832825,-73.9459371
03M283,MANHATTAN THEATRE LAB HIGH SCHOOL,27,406,379,408,1193,35,8.6,43,10.5,5,26,7,1.7,188,46,202,49.4,9,2.2,130,31.8,279,68.2,40.7747793,-73.98472
03M299,"HIGH SCHOOL FOR ARTS, IMAGINATION AND INQUIRY",49,374,384,374,1132,60,14.4,82,19.6,38,13,4,1,156,37.3,246,58.9,6,1.4,233,55.7,185,44.3,40.7748991,-73.9856156
03M307,"URBAN ASSEMBLY SCHOOL FOR MEDIA STUDIES, THE",41,384,390,370,1144,47,12.8,56,15.3,41,10,8,2.2,137,37.4,205,56,11,3,212,57.9,154,42.1,40.7747793,-73.98472
03M404,INNOVATION DIPLOMA PLUS,12,416,403,381,1200,7,3.5,20,10.1,1,0,97,48.7,66,33.2,33,16.6,3,1.5,95,47.7,104,52.3,40.785992,-73.9743724
03M415,WADLEIGH SECONDARY SCHOOL FOR THE PERFORMING & VISUAL ARTS,32,371,368,370,1109,38,7.4,97,18.8,5,60,2,0.4,309,59.9,200,38.8,4,0.8,198,38.4,318,61.6,40.8025744,-73.9541403
03M470,LOUIS D. BRANDEIS HIGH SCHOOL,131,370,390,358,1118,81,27.8,31,10.7,0,8,6,2.1,86,29.6,196,67.4,3,1,147,50.5,144,49.5,40.786,-73.9741
03M479,BEACON HIGH SCHOOL,261,577,575,592,1744,2,0.2,43,3.7,12,0,103,8.9,170,14.6,265,22.8,579,49.8,453,39,709,61,40.7613016,-73.9960457
03M485,FIORELLO H. LAGUARDIA HIGH SCHOOL OF MUSIC & ART AND PERFORMING ARTS,531,566,564,577,1707,4,0.2,26,1,0,0,510,19.6,337,12.9,432,16.6,1281,49.2,688,26.4,1917,73.6,40.7741856,-73.9851211
03M492,"HIGH SCHOOL FOR LAW, ADVOCACY AND COMMUNITY JUSTICE",66,396,398,402,1196,57,10.5,84,15.5,7,38,7,1.3,250,46.2,260,48.1,10,1.8,217,40.1,324,59.9,40.7747793,-73.98472
03M494,HIGH SCHOOL OF ARTS AND TECHNOLOGY,75,433,433,411,1277,63,10.4,104,17.2,28,26,30,5,210,34.8,345,57.2,14,2.3,408,67.7,195,32.3,40.7748991,-73.9856157
03M505,EDWARD A. REYNOLDS WEST SIDE HIGH SCHOOL,35,401,369,351,1121,44,7.8,130,23,49,20,3,0.5,195,34.6,363,64.4,3,0.5,250,44.3,314,55.7,40.7971309,-73.9667832
03M541,MANHATTAN / HUNTER SCIENCE HIGH SCHOOL,111,473,506,467,1446,6,1.3,17,3.8,0,0,116,25.6,97,21.4,188,41.5,46,10.2,186,41.1,267,58.9,40.7747793,-73.98472
03M860,FREDERICK DOUGLASS ACADEMY II SECONDARY SCHOOL,43,356,379,361,1096,24,5.8,86,20.8,36,24,3,0.7,321,77.7,78,18.9,6,1.5,224,54.2,189,45.8,40.8025691,-73.9541214
04M409,COALITION SCHOOL FOR SOCIAL CHANGE,48,354,357,373,1084,34,9.7,85,24.4,42,17,3,0.9,137,39.3,205,58.7,3,0.9,155,44.4,194,55.6,40.7992278,-73.9338214
04M435,MANHATTAN CENTER FOR SCIENCE AND MATHEMATICS,375,461,514,455,1430,44,2.7,95,5.8,37,29,332,20.1,325,19.7,947,57.4,37,2.2,765,46.4,885,53.6,40.7943534,-73.9329763
04M495,PARK EAST HIGH SCHOOL,51,373,379,376,1128,15,4.3,37,10.6,21,3,17,4.9,116,33.2,208,59.6,1,0.3,147,42.1,202,57.9,40.7903307,-73.9440649
04M555,CENTRAL PARK EAST HIGH SCHOOL,73,405,421,395,1221,18,4,60,13.5,44,5,29,6.5,119,26.7,287,64.5,7,1.6,143,32.1,302,67.9,40.7936899,-73.9491583
04M610,YOUNG WOMEN'S LEADERSHIP SCHOOL,70,432,446,448,1326,10,2.2,30,6.7,3,0,23,5.1,140,31.2,270,60.1,7,1.6,0,0,449,100,40.7929,-73.9472
04M635,ACADEMY OF ENVIRONMENTAL SCIENCE SECONDARY HIGH SCHOOL,48,369,369,357,1095,26,13.5,36,18.8,7,14,8,4.2,53,27.6,126,65.6,4,2.1,119,62,73,38,40.7851693,-73.9422154
04M680,"HERITAGE SCHOOL, THE",31,358,351,345,1054,20,6.8,73,24.8,33,12,1,0.3,85,28.9,204,69.4,3,1,143,48.6,151,51.4,40.792,-73.9469
05M285,HARLEM RENAISSANCE HIGH SCHOOL,29,357,318,333,1008,21,9.5,24,10.8,12,1,1,0.5,138,62.2,82,36.9,1,0.5,87,39.2,135,60.8,40.807763,-73.939957
05M304,MOTT HALL HIGH SCHOOL,54,413,399,398,1210,37,8.7,66,15.5,18,12,4,0.9,149,35,272,63.8,1,0.2,228,53.5,198,46.5,40.817349,-73.94745
05M367,ACADEMY FOR SOCIAL ACTION: A COLLEGE BOARD SCHOOL,33,354,366,342,1062,42,9.9,92,21.6,64,2,2,0.5,261,61.4,162,38.1,0,0,207,48.7,218,51.3,40.8154784,-73.9555563
05M369,URBAN ASSEMBLY SCHOOL FOR THE PERFORMING ARTS,56,360,353,364,1077,23,6.1,62,16.6,25,12,2,0.5,221,59.1,143,38.2,3,0.8,95,25.4,279,74.6,40.8157451,-73.9556
05M469,CHOIR ACADEMY OF HARLEM,20,354,360,385,1099,7,2,46,13.3,1,25,1,0.3,264,76.1,78,22.5,2,0.6,138,39.8,209,60.2,40.8070626,-73.9388294
05M499,FREDERICK DOUGLASS ACADEMY,214,458,474,442,1374,38,2.4,138,8.9,59,45,18,1.2,1158,74.4,355,22.8,21,1.3,812,52.2,744,47.8,40.8243982,-73.9365449
05M670,THURGOOD MARSHALL ACADEMY FOR LEARNING AND SOCIAL CHANGE,66,396,402,404,1202,8,1.4,58,10,39,0,1,0.2,453,78.1,121,20.9,1,0.2,256,44.1,324,55.9,40.8152252,-73.9443209
05M685,BREAD & ROSES INTEGRATED ARTS HIGH SCHOOL,61,369,361,355,1085,92,17.6,110,21,12,60,2,0.4,279,53.2,238,45.4,3,0.6,256,48.9,268,51.1,40.7400267,-73.991313
05M692,"HIGH SCHOOL FOR MATHEMATICS, SCIENCE AND ENGINEERING AT CITY COLLEGE",101,605,654,588,1847,0,0,0,0,,,147,36.2,61,15,86,21.2,106,26.1,267,65.8,139,34.2,40.8214739,-73.9490389
06M293,CITY COLLEGE ACADEMY OF THE ARTS,60,408,446,416,1270,36,6.1,77,13.1,59,0,4,0.7,35,6,539,92,7,1.2,232,39.6,354,60.4,40.8608456,-73.9301494
06M346,COMMUNITY HEALTH ACADEMY OF THE HEIGHTS,55,362,376,367,1105,156,30,90,17.3,15,16,1,0.2,27,5.2,488,93.8,4,0.8,272,52.3,248,47.7,40.8336419,-73.9422627
06M348,WASHINGTON HEIGHTS EXPEDITIONARY LEARNING SCHOOL,70,380,395,399,1174,118,19.6,109,18.1,76,0,0,0,14,2.3,582,96.7,2,0.3,336,55.8,266,44.2,40.8490987,-73.9311063
06M462,HIGH SCHOOL FOR INTERNATIONAL BUSINESS AND FINANCE,76,365,384,378,1127,271,43,86,13.7,2,46,3,0.5,33,5.2,576,91.4,9,1.4,402,63.8,228,36.2,40.8558,-73.9262
06M463,HIGH SCHOOL FOR MEDIA AND COMMUNICATIONS,63,369,380,349,1098,154,26.9,97,17,55,8,6,1,61,10.7,498,87.1,3,0.5,363,63.5,209,36.5,40.8562127,-73.9265543
06M467,HIGH SCHOOL FOR LAW AND PUBLIC SERVICE,94,363,378,361,1102,222,32,116,16.7,45,31,7,1,90,13,586,84.4,9,1.3,407,58.6,287,41.4,40.8558937,-73.9260333
06M468,HIGH SCHOOL FOR HEALTH CAREERS AND SCIENCES,24,400,422,402,1224,212,31.2,94,13.8,42,14,5,0.7,93,13.7,569,83.8,7,1,358,52.7,321,47.3,40.8555572,-73.9262029
06M540,A. PHILIP RANDOLPH CAMPUS HIGH SCHOOL,228,430,456,423,1309,30,2.3,71,5.5,3,43,52,4,421,32.8,801,62.3,9,0.7,641,49.9,644,50.1,40.8183975,-73.9501148
06M552,GREGORIO LUPERON HIGH SCHOOL FOR SCIENCE AND MATHEMATICS,56,339,349,326,1014,423,89.6,0,0,,,0,0,0,0,471,99.8,0,0,231,48.9,241,51.1,40.8382195,-73.9385431
07X221,SOUTH BRONX PREPARATORY: A COLLEGE BOARD SCHOOL,65,364,378,348,1090,55,8.8,120,19.3,70,21,4,0.6,186,29.9,428,68.8,3,0.5,295,47.4,327,52.6,40.8137231,-73.9206428
07X321,CROTONA ACADEMY HIGH SCHOOL,9,379,364,382,1125,3,2.4,8,6.5,0,0,1,0.8,53,42.7,67,54,1,0.8,39,31.5,85,68.5,40.8296126,-73.8921041
07X334,INTERNATIONAL COMMUNITY HIGH SCHOOL,34,310,324,311,945,354,90.1,7,1.8,1,0,19,4.8,79,20.1,282,71.8,8,2,191,48.6,202,51.4,40.8099356,-73.9180756
07X427,COMMUNITY SCHOOL FOR SOCIAL JUSTICE,43,361,359,357,1077,42,13.2,63,19.7,31,11,2,0.6,103,32.3,209,65.5,3,0.9,157,49.2,162,50.8,40.8158033,-73.9298282
07X473,MOTT HAVEN VILLAGE PREPARATORY HIGH SCHOOL,63,351,375,371,1097,35,9.6,67,18.5,33,8,4,1.1,82,22.6,276,76,0,0,182,50.1,181,49.9,40.8182,-73.9113
07X495,UNIVERSITY HEIGHTS SECONDARY SCHOOL,79,403,394,404,1201,17,3.7,24,5.2,16,0,12,2.6,84,18.1,363,78.1,6,1.3,201,43.2,264,56.8,40.8181,-73.9115
07X500,HOSTOSsLINCOLN ACADEMY OF SCIENCE,66,420,426,411,1257,30,5.6,64,11.9,38,11,11,2,129,24,391,72.7,4,0.7,243,45.2,295,54.8,40.8146,-73.912
07X520,FOREIGN LANGUAGE ACADEMY OF GLOBAL STUDIES,64,399,396,391,1186,68,21.9,70,22.5,1,50,10,3.2,81,26,214,68.8,3,1,141,45.3,170,54.7,40.810911,-73.9092839
07X527,BRONX LEADERSHIP ACADEMY II HIGH SCHOOL,62,362,378,363,1103,71,14.1,93,18.5,55,24,7,1.4,207,41.2,281,56,5,1,271,54,231,46,40.822489,-73.92314
07X547,NEW EXPLORERS HIGH SCHOOL,28,367,356,361,1084,60,15.7,96,25.1,57,17,2,0.5,116,30.3,261,68.1,2,0.5,221,57.7,162,42.3,40.8226154,-73.9233477
07X548,URBAN ASSEMBLY SCHOOL FOR CAREERS IN SPORTS,44,387,411,383,1181,24,5,89,18.7,58,18,2,0.4,127,26.6,336,70.4,2,0.4,402,84.3,75,15.7,40.8225735,-73.9235453
07X551,BRONX ACADEMY OF LETTERS,51,413,381,407,1201,52,9.4,133,24,36,57,3,0.5,189,34.1,357,64.3,5,0.9,247,44.5,308,55.5,40.81366,-73.925999
07X600,ALFRED E. SMITH CAREER AND TECHNICAL EDUCATION HIGH SCHOOL,76,394,400,364,1158,67,9.1,162,22,30,87,10,1.4,265,35.9,454,61.5,5,0.7,684,92.7,54,7.3,40.8185183,-73.9199681
07X655,SAMUEL GOMPERS CAREER AND TECHNICAL EDUCATION HIGH SCHOOL,47,398,416,370,1184,113,17,173,26.1,15,120,8,1.2,215,32.4,430,64.9,5,0.8,528,79.6,135,20.4,40.810415,-73.9075759
07X670,HEALTH OPPORTUNITIES HIGH SCHOOL,114,363,368,364,1095,61,10.4,115,19.6,43,44,18,3.1,230,39.2,334,56.9,3,0.5,168,28.6,419,71.4,40.815542,-73.9304433
08X282,WOMEN'S ACADEMY OF EXCELLENCE,44,407,386,378,1171,10,2.6,59,15.6,31,12,11,2.9,174,45.9,176,46.4,9,2.4,1,0.3,378,99.7,40.8149607,-73.8560605
08X293,RENAISSANCE HIGH SCHOOL FOR MUSICAL THEATER & TECHNOLOGY,52,384,385,389,1158,21,4.5,102,21.7,54,9,12,2.6,119,25.4,299,63.8,36,7.7,178,38,291,62,40.8401731,-73.8393567
08X295,GATEWAY SCHOOL FOR ENVIRONMENTAL RESEARCH AND TECHNOLOGY,41,416,390,394,1200,55,11.5,115,24.1,42,51,27,5.6,158,33.1,284,59.4,5,1,287,60,191,40,40.8213444,-73.8556733
08X305,PABLO NERUDA ACADEMY FOR ARCHITECTURE AND WORLD STUDIES,67,337,361,340,1038,57,15.9,98,27.3,67,16,9,2.5,94,26.2,251,69.9,5,1.4,237,66,122,34,40.8213444,-73.8556733
08X312,MILLENNIUM ART ACADEMY,67,387,402,375,1164,27,5.4,101,20.4,58,22,9,1.8,161,32.5,319,64.3,5,1,244,49.2,252,50.8,40.8213444,-73.8556733
08X332,HOLCOMBE L. RUCKER SCHOOL OF COMMUNITY RESEARCH,39,363,371,350,1084,42,12.6,60,18,34,17,3,0.9,133,39.9,189,56.8,2,0.6,164,49.2,169,50.8,40.8178276,-73.8978152
08X377,BRONX COMMUNITY HIGH SCHOOL,9,367,369,376,1112,9,4.5,10,5,0,1,2,1,66,33,127,63.5,2,1,101,50.5,99,49.5,40.8213444,-73.8556733
08X405,HERBERT H. LEHMAN HIGH SCHOOL,415,412,436,393,1241,332,9.2,751,20.9,258,347,246,6.8,826,23,2176,60.6,322,9,2196,61.1,1397,38.9,40.840173,-73.839357
08X452,BRONX GUILD,39,369,371,365,1105,22,7.2,70,23,44,14,12,3.9,103,33.8,187,61.3,2,0.7,151,49.5,154,50.5,40.821999,-73.855774
08X519,"FELISA RINCON DE GAUTIER INSTITUTE FOR LAW AND PUBLIC POLICY, THE",68,373,370,356,1099,51,14,76,20.9,20,32,5,1.4,79,21.8,276,76,2,0.6,156,43,207,57,40.820831,-73.8806876
08X530,BANANA KELLY HIGH SCHOOL,54,373,381,377,1131,61,13.5,116,25.7,63,33,3,0.7,147,32.6,295,65.4,5,1.1,225,49.9,226,50.1,40.8229845,-73.8997993
08X540,SCHOOL FOR COMMUNITY RESEARCH AND LEARNING,16,366,400,368,1134,21,11,54,28.3,28,26,9,4.7,55,28.8,124,64.9,2,1,109,57.1,82,42.9,40.8214002,-73.8556869
08X560,HIGH SCHOOL X560 s BRONX ACADEMY HIGH SCHOOL,9,404,368,399,1171,18,9.2,13,6.7,1,1,0,0,74,37.9,119,61,2,1,86,44.1,109,55.9,40.8595,-73.8886
08X650,JANE ADDAMS HIGH SCHOOL FOR ACADEMIC CAREERS,78,377,359,376,1112,80,11.2,159,22.2,38,69,11,1.5,264,36.8,436,60.8,2,0.3,203,28.3,514,71.7,40.8219762,-73.9034405
09X227,BRONX EXPEDITIONARY LEARNING HIGH SCHOOL,39,324,376,349,1049,104,29.3,75,21.1,30,28,4,1.1,99,27.9,246,69.3,3,0.8,178,50.1,177,49.9,40.839614,-73.911386
09X231,EAGLE ACADEMY FOR YOUNG MEN,78,373,387,374,1134,22,4,133,24.2,41,33,4,0.7,347,63.1,186,33.8,3,0.5,550,100,0,0,40.845264,-73.897176
09X239,"URBAN ASSEMBLY ACADEMY FOR HISTORY AND CITIZENSHIP FOR YOUNG MEN, THE",33,372,355,357,1084,28,19.9,39,27.7,14,20,1,0.7,80,56.7,57,40.4,1,0.7,141,100,0,0,40.84028,-73.911087
09X241,"URBAN ASSEMBLY SCHOOL FOR APPLIED MATH AND SCIENCE, THE",80,411,464,415,1290,57,9.4,89,14.7,52,12,16,2.6,194,32,384,63.4,9,1.5,299,49.3,307,50.7,40.8394571,-73.9018947
09X250,EXIMIUS COLLEGE PREPARATORY ACADEMY: A COLLEGE BOARD SCHOOL,50,393,394,382,1169,29,8.1,67,18.8,40,14,2,0.6,145,40.7,207,58.1,1,0.3,166,46.6,190,53.4,40.8339721,-73.9027472
09X252,MOTT HALL BRONX HIGH SCHOOL,67,369,367,356,1092,31,8.8,55,15.5,7,28,4,1.1,86,24.3,261,73.7,3,0.8,162,45.8,191,54,40.8396148,-73.9017332
09X260,BRONX CENTER FOR SCIENCE AND MATHEMATICS,81,459,480,457,1396,7,1.6,62,14,34,14,26,5.9,108,24.3,305,68.7,5,1.1,205,46.2,239,53.8,40.8339721,-73.9027472
09X263,VALIDUS PREPARATORY ACADEMY: AN EXPEDITIONARY LEARNING SCHOOL,74,356,363,356,1075,44,12.1,59,16.2,26,18,4,1.1,125,34.2,233,63.8,1,0.3,161,44.1,204,55.9,40.8394126,-73.9019033
09X276,LEADERSHIP INSTITUTE,30,361,353,367,1081,38,16.5,37,16.1,6,24,4,1.7,76,33,146,63.5,3,1.3,120,52.2,110,47.8,40.796,-73.9336
09X297,MORRIS ACADEMY FOR COLLABORATIVE STUDIES,38,386,386,376,1148,86,19.1,101,22.4,68,19,2,0.4,117,26,329,73.1,2,0.4,242,53.8,208,46.2,40.8272169,-73.9039243
09X329,DREAMYARD PREPARATORY SCHOOL,51,382,365,391,1138,85,24.4,68,19.5,9,38,0,0,94,26.9,244,69.9,1,0.3,154,44.1,195,55.9,40.8396259,-73.9113888
09X365,ACADEMY FOR LANGUAGE AND TECHNOLOGY,54,315,339,297,951,291,86.6,3,0.9,0,0,0,0,2,0.6,334,99.4,0,0,164,48.8,172,51.2,40.8493122,-73.915653
09X403,BRONX INTERNATIONAL HIGH SCHOOL,49,314,312,339,965,351,87.1,5,1.2,4,1,4,1,92,22.8,291,72.2,15,3.7,184,45.7,219,54.3,40.8271913,-73.9040046
09X404,SCHOOL FOR EXCELLENCE,32,363,360,351,1074,80,20.7,101,26.2,40,35,1,0.3,133,34.5,249,64.5,0,0,202,52.3,184,47.7,40.8273033,-73.9045097
09X412,BRONX HIGH SCHOOL OF BUSINESS,34,356,376,351,1083,93,23.2,93,23.2,21,53,3,0.7,155,38.7,240,59.9,2,0.5,220,54.9,181,45.1,40.8396545,-73.911386
09X413,BRONX HIGH SCHOOL FOR MEDICAL SCIENCE,64,400,419,402,1221,26,5.7,39,8.6,6,21,24,5.3,167,36.7,263,57.8,1,0.2,192,42.2,263,57.8,40.8396545,-73.911386
09X414,JONATHAN LEVIN HIGH SCHOOL FOR MEDIA AND COMMUNICATIONS,35,379,364,379,1122,147,38.5,80,20.9,2,47,2,0.5,85,22.3,288,75.4,6,1.6,204,53.4,178,46.6,40.8396545,-73.911386
09X505,"BRONX SCHOOL FOR LAW, GOVERNMENT AND JUSTICE",80,404,418,402,1224,50,6.6,107,14,27,45,15,2,232,30.4,505,66.2,8,1,350,45.9,413,54.1,40.827493,-73.9190153
09X517,FREDERICK DOUGLASS ACADEMY III SECONDARY SCHOOL,50,368,384,369,1121,34,6.4,94,17.7,35,35,6,1.1,299,56.2,220,41.4,2,0.4,274,51.5,258,48.5,40.8337212,-73.9038974
09X525,BRONX LEADERSHIP ACADEMY HIGH SCHOOL,114,384,394,388,1166,68,9.6,143,20.3,25,69,5,0.7,290,41.1,402,57,0,0,305,43.3,400,56.7,40.8434287,-73.9031094
09X543,HIGH SCHOOL FOR VIOLIN AND DANCE,27,353,315,371,1039,28,8.7,72,22.3,38,16,1,0.3,119,36.8,202,62.5,0,0,47,14.6,276,85.4,40.8272169,-73.9039243
10X141,RIVERDALE / KINGSBRIDGE ACADEMY (MIDDLE SCHOOL / HIGH SCHOOL 141),113,438,455,440,1333,90,6.7,203,15.2,11,65,117,8.8,174,13,709,53,333,24.9,692,51.8,645,48.2,40.8882097,-73.913565
10X213,BRONX ENGINEERING AND TECHNOLOGY ACADEMY,86,373,412,365,1150,69,15.5,95,21.4,70,4,23,5.2,131,29.5,285,64.2,4,0.9,367,82.7,77,17.3,40.8776027,-73.9133334
10X225,THEATRE ARTS PRODUCTION COMPANY SCHOOL,59,405,391,394,1190,23,4.4,99,18.9,73,3,6,1.1,143,27.3,365,69.7,6,1.1,162,30.9,362,69.1,40.8546548,-73.8970362
10X237,"THE MARIE CURIE SCHOOL FOR MEDICINE, NURSING, AND HEALTH PROFESSIONS",79,382,393,382,1157,36,6.7,84,15.6,39,19,8,1.5,192,35.6,310,57.4,18,3.3,89,16.5,451,83.5,40.8755907,-73.9017195
10X243,WEST BRONX ACADEMY FOR THE FUTURE,26,382,406,370,1158,84,13.2,124,19.5,89,15,22,3.5,157,24.7,442,69.5,8,1.3,368,57.9,268,42.1,40.8595423,-73.8885964
10X268,KINGSBRIDGE INTERNATIONAL HIGH SCHOOL,52,304,356,302,962,441,88.7,2,0.4,0,0,34,6.8,27,5.4,421,84.7,15,3,260,52.3,237,47.7,40.8704419,-73.8969425
10X284,BRONX SCHOOL OF LAW AND FINANCE,54,402,395,385,1182,30,7.1,64,15.2,30,21,3,0.7,133,31.5,275,65.2,11,2.6,239,56.6,183,43.4,40.8776412,-73.913386
10X342,INTERNATIONAL SCHOOL FOR LIBERAL ARTS,49,300,333,301,934,484,79.9,28,4.6,11,3,1,0.2,0,0,605,99.8,0,0,297,49,309,51,40.8704419,-73.8969425
10X368,INsTECH ACADEMY (M.S. / HIGH SCHOOL 368),111,390,408,383,1181,136,12.1,161,14.3,53,36,45,4,134,11.9,922,81.9,23,2,551,48.9,575,51.1,40.8790734,-73.911364
10X374,KNOWLEDGE AND POWER PREPARATORY ACADEMY INTERNATIONAL HIGH SCHOOL (KAPPA),61,392,401,387,1180,30,9.3,36,11.1,15,3,3,0.9,114,35.2,194,59.9,10,3.1,153,47.2,171,52.8,40.8594735,-73.888666
10X397,ENGLISH LANGUAGE LEARNERS AND INTERNATIONAL SUPPORT PREPARATORY ACADEMY (ELLIS),38,343,356,330,1029,254,80.4,0,0,,,22,7,52,16.5,229,72.5,6,1.9,176,55.7,140,44.3,40.8776412,-73.913386
10X433,HIGH SCHOOL FOR TEACHING AND THE PROFESSIONS,57,370,371,365,1106,84,17.8,95,20.1,8,44,12,2.5,119,25.2,333,70.4,9,1.9,200,42.3,273,57.7,40.8704419,-73.8969425
10X434,BELMONT PREPARATORY HIGH SCHOOL,51,404,418,400,1222,46,11.3,64,15.7,2,43,13,3.2,118,29,267,65.6,7,1.7,192,47.2,215,52.8,40.8594021,-73.8886743
10X437,FORDHAM HIGH SCHOOL FOR THE ARTS,48,355,350,372,1077,48,12.4,87,22.5,18,41,6,1.6,138,35.7,238,61.5,5,1.3,167,43.2,220,56.8,40.8595423,-73.8885964
10X438,FORDHAM LEADERSHIP ACADEMY FOR BUSINESS AND TECHNOLOGY,63,367,385,367,1119,75,16.6,93,20.6,21,46,12,2.7,125,27.7,306,67.8,6,1.3,286,63.4,165,36.6,40.8595464,-73.8886017
10X439,BRONX HIGH SCHOOL FOR LAW AND COMMUNITY SERVICE,65,366,364,352,1082,58,13.4,90,20.8,29,33,10,2.3,133,30.8,279,64.6,4,0.9,192,44.4,240,55.6,40.8595181,-73.8885909
10X440,DEWITT CLINTON HIGH SCHOOL,443,419,426,410,1255,791,19,621,14.9,135,352,278,6.7,1282,30.8,2478,59.6,86,2.1,2126,51.1,2033,48.9,40.881324,-73.887407
10X442,"CELIA CRUZ BRONX HIGH SCHOOL OF MUSIC, THE",52,423,420,427,1270,15,3.5,33,7.8,1,2,2,0.5,115,27.2,294,69.5,10,2.4,172,40.7,251,59.3,40.8705478,-73.8972152
10X445,BRONX HIGH SCHOOL OF SCIENCE,731,632,688,649,1969,2,0.1,3,0.1,0,0,1912,63.5,105,3.5,216,7.2,764,25.4,1741,57.8,1272,42.2,40.8783054,-73.890843
10X475,JOHN F. KENNEDY HIGH SCHOOL,109,351,362,339,1052,168,23.8,147,20.8,43,57,5,0.7,248,35.1,443,62.7,10,1.4,482,68.3,224,31.7,40.87316,-73.90816
10X477,MARBLE HILL HIGH SCHOOL FOR INTERNATIONAL STUDIES,99,414,435,414,1263,147,32.2,31,6.8,21,0,50,11,105,23,264,57.9,34,7.5,213,46.7,243,53.3,40.8771416,-73.9126839
10X546,BRONX THEATRE HIGH SCHOOL,68,348,362,354,1064,42,9.4,67,15.1,17,21,2,0.4,128,28.8,307,69,8,1.8,143,32.1,302,67.9,40.8774191,-73.9132583
10X549,DISCOVERY HIGH SCHOOL,55,372,379,364,1115,109,20.6,94,17.8,6,53,11,2.1,107,20.2,400,75.6,7,1.3,277,52.4,252,47.6,40.8705,-73.8971
10X660,GRACE DODGE CAREER AND TECHNICAL EDUCATION HIGH SCHOOL,73,362,382,356,1100,219,18.8,280,24.1,38,153,17,1.5,350,30.1,780,67.1,10,0.9,465,40,697,60,40.8553275,-73.8824109
10X696,HIGH SCHOOL OF AMERICAN STUDIES AT LEHMAN COLLEGE,92,636,648,636,1920,0,0,5,1.3,0,0,63,16.7,40,10.6,68,18,203,53.8,203,53.8,174,46.2,40.8748759,-73.8952231
11X249,BRONX HEALTH SCIENCES HIGH SCHOOL,74,370,381,382,1133,23,6.1,28,7.4,15,8,18,4.8,214,56.8,137,36.3,2,0.5,133,35.3,244,64.7,40.8740126,-73.8333032
11X253,BRONX HIGH SCHOOL FOR WRITING AND COMMUNICATION ARTS,46,400,357,390,1147,36,8.5,61,14.5,21,23,10,2.4,204,48.3,201,47.6,7,1.7,172,40.8,250,59.2,40.8751619,-73.8616096
11X265,BRONX LAB SCHOOL,81,377,391,367,1135,18,3.7,76,15.8,42,14,13,2.7,182,37.8,276,57.3,8,1.7,287,59.5,195,40.5,40.8750988,-73.8616623
11X270,ACADEMY FOR SCHOLARSHIP AND ENTREPRENEURSHIP: A COLLEGE BOARD SCHOOL,56,386,394,361,1141,38,6.3,112,18.5,34,45,15,2.5,386,63.7,194,32,4,0.7,315,52,291,48,40.888161,-73.8524927
11X275,HIGH SCHOOL OF COMPUTERS AND TECHNOLOGY,72,381,376,354,1111,56,10.2,111,20.2,64,8,20,3.6,192,34.9,327,59.5,7,1.3,480,87.3,70,12.7,40.8752055,-73.8616059
11X288,COLLEGIATE INSTITUTE FOR MATH AND SCIENCE,97,444,471,433,1348,18,3.3,76,14,38,18,50,9.2,200,36.8,254,46.8,38,7,310,57.1,233,42.9,40.8603747,-73.8603398
11X290,BRONX ACADEMY OF HEALTH CAREERS,69,387,365,383,1135,37,7.7,92,19,33,33,16,3.3,254,52.6,199,41.2,5,1,158,32.7,325,67.3,40.8750988,-73.8616623
11X299,ASTOR COLLEGIATE ACADEMY,60,387,391,391,1169,38,7.6,108,21.7,49,23,27,5.4,178,35.7,229,46,59,11.8,292,58.6,206,41.4,40.8602833,-73.8603759
11X415,CHRISTOPHER COLUMBUS HIGH SCHOOL,121,367,361,353,1081,133,18.3,175,24.1,49,88,42,5.8,254,34.9,338,46.5,92,12.7,401,55.2,326,44.8,40.8603,-73.8602
11X418,BRONX HIGH SCHOOL FOR THE VISUAL ARTS,48,419,433,416,1268,25,5.2,101,20.9,43,26,9,1.9,141,29.2,301,62.3,31,6.4,280,58,203,42,40.8517178,-73.864467
11X455,HARRY S TRUMAN HIGH SCHOOL,189,386,397,368,1151,164,9.2,445,25.1,21,258,35,2,918,51.8,777,43.8,23,1.3,1063,60,710,40,40.874285,-73.833329
11X513,NEW WORLD HIGH SCHOOL,72,332,381,335,1048,322,80.1,6,1.5,0,0,50,12.4,53,13.2,283,70.4,13,3.2,201,50,201,50,40.8883728,-73.8527494
11X514,THE BRONXWOOD PREPARATORY ACADEMY,48,377,372,363,1112,29,7,87,20.9,21,42,8,1.9,242,58.2,155,37.3,4,1,255,61.3,161,38.7,40.8882379,-73.85261
11X541,GLOBAL ENTERPRISE HIGH SCHOOL,57,372,382,375,1129,39,14.4,48,17.8,24,22,11,4.1,97,35.9,146,54.1,15,5.6,153,56.7,117,43.3,40.8602833,-73.8603759
11X542,PELHAM PREPARATORY ACADEMY,76,431,438,419,1288,11,2.2,72,14.2,31,29,12,2.4,204,40.2,252,49.7,35,6.9,244,48.1,263,51.9,40.8603656,-73.8602473
11X544,HIGH SCHOOL FOR CONTEMPORARY ARTS,55,383,378,365,1126,49,10.2,102,21.3,27,34,5,1,178,37.2,287,59.9,5,1,265,55.3,214,44.7,40.8750988,-73.8616623
11X545,BRONX AEROSPACE HIGH SCHOOL,46,388,393,382,1163,61,14.7,107,25.7,39,45,9,2.2,99,23.8,302,72.6,5,1.2,343,82.5,73,17.5,40.8751619,-73.8616096
12X245,NEW DAY ACADEMY,25,348,344,354,1046,21,11,44,23,14,19,2,1,87,45.5,102,53.4,0,0,92,48.2,99,51.8,40.8271,-73.9009
12X248,"METROPOLITAN HIGH SCHOOL, THE",49,347,367,341,1055,74,21.8,71,20.9,43,16,6,1.8,82,24.2,247,72.9,3,0.9,183,54,156,46,40.827733,-73.897018
12X251,EXPLORATIONS ACADEMY,57,381,381,360,1122,72,19.9,77,21.3,38,19,6,1.7,113,31.2,237,65.5,5,1.4,184,50.8,178,49.2,40.8363,-73.8907
12X262,PERFORMANCE CONSERVATORY HIGH SCHOOL,30,361,353,360,1074,26,10,73,28.1,23,29,3,1.2,102,39.2,150,57.7,2,0.8,64,24.6,196,75.4,40.8363157,-73.8907414
12X267,BRONX LATIN,36,408,432,411,1251,57,13.6,90,21.5,28,34,1,0.2,107,25.6,306,73.2,4,1,208,49.8,210,50.2,40.8276602,-73.9004224
12X271,EAST BRONX ACADEMY FOR THE FUTURE,46,366,378,358,1102,72,11.6,149,24.1,38,40,12,1.9,182,29.4,423,68.3,1,0.2,328,53,291,47,40.8367822,-73.8877059
12X278,PEACE AND DIVERSITY ACADEMY,34,390,401,364,1155,32,13.9,40,17.3,16,12,4,1.7,101,43.7,124,53.7,2,0.9,104,45,127,55,40.827719,-73.8970008
12X388,PAN AMERICAN INTERNATIONAL HIGH SCHOOL AT MONROE,30,321,351,298,970,377,92.9,1,0.2,0,1,0,0,0,0,405,99.8,0,0,209,51.5,197,48.5,40.8320571,-73.8784059
12X446,ARTURO A. SCHOMBURG SATELLITE ACADEMY BRONX,14,380,372,349,1101,11,4.8,21,9.2,3,0,1,0.4,94,41.2,130,57,0,0,76,33.3,152,66.7,40.82349,-73.8985308
12X480,BRONX REGIONAL HIGH SCHOOL,16,398,385,398,1181,34,10.1,27,8,0,0,5,1.5,137,40.5,193,57.1,2,0.6,127,37.6,211,62.4,40.8232973,-73.8987443
12X550,HIGH SCHOOL OF WORLD CULTURES,42,304,323,312,939,319,86.4,2,0.5,0,0,9,2.4,40,10.8,312,84.6,2,0.5,192,52,177,48,40.8320451,-73.8783844
12X682,FANNIE LOU HAMER FREEDOM HIGH SCHOOL,72,342,346,341,1029,55,11.5,125,26.2,44,41,1,0.2,146,30.6,328,68.8,1,0.2,258,54.1,219,45.9,40.8310801,-73.8856007
12X684,WINGS ACADEMY,66,378,374,362,1114,24,4.5,120,22.3,21,57,7,1.3,296,55,227,42.2,7,1.3,289,53.7,249,46.3,40.8416248,-73.8751818
12X690,MONROE ACADEMY FOR BUSINESS/LAW,31,375,387,376,1138,37,14.9,46,18.5,10,22,6,2.4,67,26.9,172,69.1,1,0.4,151,60.6,98,39.4,40.8320451,-73.8783844
12X692,MONROE ACADEMY FOR VISUAL ARTS & DESIGN,43,332,357,349,1038,134,28.8,97,20.8,21,43,4,0.9,95,20.4,361,77.5,6,1.3,245,52.6,221,47.4,40.8323001,-73.8785801
13K265,DR. SUSAN S. MCKINNEY SECONDARY SCHOOL OF THE ARTS,29,352,349,373,1074,19,4.3,90,20.3,10,42,2,0.5,319,72,109,24.6,8,1.8,164,37,279,63,40.6969046,-73.9759851
13K336,ACADEMY OF BUSINESS AND COMMUNITY DEVELOPMENT,9,439,374,418,1231,7,3.1,48,21.3,19,11,6,2.7,200,88.9,16,7.1,1,0.4,224,99.6,1,0.4,40.6820023,-73.9452586
13K350,URBAN ASSEMBLY HIGH SCHOOL OF MUSIC AND ART,52,360,364,356,1080,20,4.6,97,22.5,36,39,8,1.9,316,73.3,98,22.7,4,0.9,184,42.7,247,57.3,40.6973905,-73.9848196
13K412,"BROOKLYN COMMUNITY HIGH SCHOOL OF COMMUNICATION, ARTS AND MEDIA",37,375,355,384,1114,11,2.4,83,18,50,10,3,0.6,366,79.2,79,17.1,6,1.3,210,45.5,252,54.5,40.6917001,-73.9584562
13K419,"SCIENCE SKILLS CENTER HIGH SCHOOL FOR SCIENCE, TECHNOLOGY AND THE CREATIVE ARTS",92,399,417,395,1211,36,7,71,13.7,29,21,37,7.2,402,77.8,63,12.2,11,2.1,290,56.1,227,43.9,40.6975008,-73.9847715
13K430,BROOKLYN TECHNICAL HIGH SCHOOL,1277,587,659,587,1833,4,0.1,29,0.5,1,0,3214,60.3,542,10.2,420,7.9,1135,21.3,3106,58.3,2226,41.7,40.6889546,-73.9767165
13K439,BROOKLYN INTERNATIONAL HIGH SCHOOL,90,305,364,312,981,305,83.1,0,0,,,156,42.5,74,20.2,105,28.6,32,8.7,177,48.2,190,51.8,40.6973902,-73.9848191
13K483,THE URBAN ASSEMBLY SCHOOL FOR LAW AND JUSTICE,105,400,417,389,1206,4,0.9,60,13.3,44,8,4,0.9,356,79.1,77,17.1,5,1.1,178,39.6,272,60.4,40.6946132,-73.9883212
13K499,ACORN COMMUNITY HIGH SCHOOL,72,384,364,368,1116,21,2.9,136,18.6,48,52,9,1.2,619,84.7,89,12.2,6,0.8,408,55.8,323,44.2,40.6785854,-73.9619432
13K509,FREEDOM ACADEMY HIGH SCHOOL,29,400,390,403,1193,4,1.8,31,14.2,16,7,3,1.4,179,82.1,33,15.1,2,0.9,95,43.6,123,56.4,40.6984181,-73.9865245
13K553,BROOKLYN ACADEMY HIGH SCHOOL,8,435,383,379,1197,0,0,18,9.8,1,1,1,0.5,159,86.4,21,11.4,0,0,91,49.5,93,50.5,40.6846109,-73.9478897
13K575,BEDFORD STUYVESANT PREPARATORY HIGH SCHOOL,13,398,391,394,1183,1,0.7,0,0,,,0,0,127,83.6,19,12.5,3,2,54,35.5,98,64.5,40.6846109,-73.9478897
13K595,BEDFORD ACADEMY HIGH SCHOOL,89,438,443,431,1312,4,1.1,15,4.1,0,1,10,2.7,328,89.4,26,7.1,1,0.3,180,49,187,51,40.6854101,-73.9541902
13K605,GEORGE WESTINGHOUSE CAREER AND TECHNICAL EDUCATION HIGH SCHOOL,85,406,391,392,1189,18,1.9,131,14.1,43,60,26,2.8,740,79.8,142,15.3,12,1.3,700,75.5,227,24.5,40.6958629,-73.9855862
13K670,BENJAMIN BANNEKER ACADEMY,185,471,472,448,1391,0,0,27,3,1,10,24,2.7,779,87,79,8.8,4,0.4,413,46.1,482,53.9,40.6955429,-73.9687151
13K674,"CITY POLYTECHNIC HIGH SCHOOL OF ENGINEERING, ARCHITECTURE, AND TECHNOLOGY",20,441,499,413,1353,12,3.6,53,15.8,9,24,25,7.5,195,58.2,88,26.3,15,4.5,266,79.4,69,20.6,40.6956553,-73.9858309
14K071,JUAN MOREL CAMPOS SECONDARY SCHOOL,102,365,361,359,1085,215,24.9,231,26.7,23,113,2,0.2,132,15.3,697,80.6,29,3.4,473,54.7,392,45.3,40.7043785,-73.9531909
14K404,ACADEMY FOR YOUNG WRITERS,68,387,357,381,1125,10,2.5,51,12.7,31,6,3,0.7,254,63.5,129,32.2,12,3,97,24.2,303,75.7,40.6573166,-73.8740712
14K449,"BROOKLYN LATIN SCHOOL, THE",72,586,584,570,1740,2,0.4,5,1.1,0,0,172,36.8,125,26.7,84,17.9,68,14.5,257,54.9,211,45.1,40.7102281,-73.9438471
14K454,GREEN SCHOOL: AN ACADEMY FOR ENVIRONMENTAL CAREERS,41,407,386,396,1189,45,11.5,60,15.3,39,8,8,2,187,47.7,184,46.9,10,2.6,181,46.2,211,53.8,40.7097423,-73.9445006
14K474,PROGRESS HIGH SCHOOL FOR PROFESSIONAL CAREERS,144,364,379,371,1114,172,16.1,139,13,71,28,8,0.7,348,32.6,698,65.4,11,1,518,48.5,550,51.5,40.711809,-73.939075
14K477,SCHOOL FOR LEGAL STUDIES,134,413,396,395,1204,43,5.7,99,13,58,9,7,0.9,438,57.7,298,39.3,13,1.7,348,45.8,411,54.2,40.7117723,-73.9391255
14K478,"THE HIGH SCHOOL FOR ENTERPRISE, BUSINESS AND TECHNOLOGY",142,398,421,396,1215,97,9.9,129,13.2,64,20,31,3.2,384,39.3,541,55.4,19,1.9,641,65.7,335,34.3,40.711777,-73.9392113
14K488,BROOKLYN PREPARATORY HIGH SCHOOL,42,367,373,350,1090,11,2.7,75,18.8,46,8,7,1.7,235,58.7,151,37.7,4,1,191,47.7,209,52.2,40.7154197,-73.9549291
14K558,WILLIAMSBURG HIGH SCHOOL FOR ARCHITECTURE AND DESIGN,72,363,385,364,1112,35,7,88,17.6,47,14,7,1.4,192,38.4,286,57.2,11,2.2,363,72.6,137,27.4,40.7154923,-73.9550398
14K561,WILLIAMSBURG PREPARATORY SCHOOL,113,397,410,380,1187,16,2.8,73,12.7,45,4,9,1.6,147,25.5,355,61.5,64,11.1,294,51,283,49,40.715345,-73.9547924
14K586,LYONS COMMUNITY SCHOOL,31,371,377,355,1103,77,14.6,116,22,58,23,6,1.1,220,41.7,288,54.6,11,2.1,283,53.7,244,46.3,40.7097646,-73.9445188
14K610,AUTOMOTIVE HIGH SCHOOL,94,367,376,350,1093,34,4.7,219,30.3,64,70,10,1.4,478,66.1,218,30.2,12,1.7,691,95.6,32,4.4,40.7224451,-73.9532235
14K632,FRANCES PERKINS ACADEMY,12,382,372,368,1122,17,9.8,43,24.9,33,6,0,0,112,64.7,54,31.2,7,4,133,76.9,40,23.1,40.7222345,-73.9532927
14K685,EL PUENTE ACADEMY FOR PEACE AND JUSTICE,28,359,335,341,1035,37,17,51,23.4,6,10,4,1.8,22,10.1,191,87.6,1,0.5,93,42.7,125,57.3,40.7056151,-73.9554827
15K429,BROOKLYN SCHOOL FOR GLOBAL STUDIES,52,361,367,383,1111,21,5.9,90,25.4,48,30,8,2.3,193,54.5,138,39,12,3.4,199,56.2,155,43.8,40.6849969,-73.9930755
15K448,BROOKLYN SECONDARY SCHOOL FOR COLLABORATIVE STUDIES,76,393,399,387,1179,31,4.5,202,29.2,123,24,30,4.3,237,34.2,333,48.1,87,12.6,409,59.1,283,40.9,40.6794323,-74.0019427
15K462,SECONDARY SCHOOL FOR LAW,59,398,411,394,1203,30,6.3,60,12.7,21,30,12,2.5,295,62.4,140,29.6,26,5.5,209,44.2,264,55.8,40.6693177,-73.9786411
15K463,SECONDARY SCHOOL FOR JOURNALISM,58,397,391,381,1169,56,16.7,45,13.4,4,24,31,9.2,141,42,145,43.2,18,5.4,142,42.3,194,57.7,40.6693177,-73.9786411
15K464,PARK SLOPE COLLEGIATE,72,379,416,380,1175,38,9.6,65,16.5,0,48,34,8.6,131,33.2,204,51.8,21,5.3,208,52.8,186,47.2,40.6694296,-73.9788092
15K497,SCHOOL FOR INTERNATIONAL STUDIES,64,405,415,392,1212,71,14.6,74,15.2,4,39,30,6.2,199,40.9,189,38.9,68,14,247,50.8,239,49.2,40.6849801,-73.9937004
15K519,COBBLE HILL SCHOOL OF AMERICAN STUDIES,77,398,402,385,1185,50,7.5,125,18.9,42,62,34,5.1,474,71.5,139,21,15,2.3,291,43.9,372,56.1,40.6848686,-73.99077
15K520,PACIFIC HIGH SCHOOL,9,352,341,300,993,0,0,8,8,0,0,0,0,82,82,18,18,0,0,61,61,39,39,40.69,-73.9892
15K530,METROPOLITAN CORPORATE ACADEMY HIGH SCHOOL,28,368,365,368,1101,2,1.1,32,17.2,7,16,1,0.5,150,80.6,31,16.7,0,0,93,50,93,50,40.6863861,-73.9797253
15K656,BROOKLYN HIGH SCHOOL OF THE ARTS,141,426,421,411,1258,1,0.1,49,7.2,0,14,12,1.8,519,76.5,129,19,15,2.2,230,33.9,448,66.1,40.6838346,-73.9803552
15K698,SOUTH BROOKLYN COMMUNITY HIGH SCHOOL,8,430,416,425,1271,3,2,9,6,7,2,1,0.7,32,21.5,108,72.5,6,4,67,45,82,55,40.6778434,-74.0141749
16K393,FREDERICK DOUGLASS ACADEMY IV SECONDARY SCHOOL,20,355,355,358,1068,6,1.4,75,17.1,41,7,4,0.9,367,83.6,62,14.1,2,0.5,214,48.7,225,51.3,40.6919757,-73.9314884
16K455,BOYS AND GIRLS HIGH SCHOOL,131,365,370,362,1097,40,2.5,335,20.5,59,167,8,0.5,1468,90,127,7.8,12,0.7,1006,61.7,625,38.3,40.6789227,-73.9316585
16K498,BROOKLYN HIGH SCHOOL FOR LAW AND TECHNOLOGY,46,362,372,358,1092,19,4.7,84,20.7,6,44,4,1,295,72.8,101,24.9,0,0,209,51.6,196,48.4,40.6884532,-73.9207644
16K594,GOTHAM PROFESSIONAL ARTS ACADEMY,36,370,372,351,1093,7,2.4,51,17.3,23,10,3,1,231,78.6,57,19.4,2,0.7,127,43.2,167,56.8,40.6785117,-73.961744
17K382,ACADEMY FOR COLLEGE PREPARATION AND CAREER EXPLORATION: A COLLEGE BOARD SCHOOL,59,396,374,369,1139,28,5,61,10.8,43,9,1,0.2,520,92,38,6.7,6,1.1,304,53.8,261,46.2,40.6494997,-73.9581617
17K408,ACADEMY OF HOSPITALITY AND TOURISM,57,352,342,351,1045,41,12.9,49,15.4,30,4,5,1.6,269,84.3,41,12.9,3,0.9,159,49.8,160,50.2,40.6488485,-73.9582046
17K489,W.E.B. DUBOIS ACADEMIC HIGH SCHOOL,7,394,364,334,1092,1,0.5,22,11.1,0,0,2,1,186,93.5,8,4,1,0.5,91,45.7,108,54.3,40.6695162,-73.9552655
17K524,INTERNATIONAL HIGH SCHOOL AT PROSPECT HEIGHTS,71,287,335,291,913,365,91,4,1,0,0,114,28.4,117,29.2,112,27.9,57,14.2,237,59.1,164,40.9,40.6699636,-73.9615536
17K528,THE HIGH SCHOOL FOR GLOBAL CITIZENSHIP,46,403,385,388,1176,18,5.2,46,13.4,19,20,5,1.5,306,89.2,25,7.3,5,1.5,172,50.1,171,49.9,40.6699561,-73.9611201
17K531,"SCHOOL FOR HUMAN RIGHTS, THE",35,348,381,359,1088,24,6.2,58,15,31,9,3,0.8,343,88.9,32,8.3,6,1.6,199,51.6,187,48.4,40.658665,-73.943838
17K533,SCHOOL FOR DEMOCRACY AND LEADERSHIP,38,377,404,372,1153,15,3.7,59,14.5,33,20,2,0.5,363,89.4,34,8.4,6,1.5,211,52,195,48,40.658665,-73.943838
17K537,HIGH SCHOOL FOR YOUTH AND COMMUNITY DEVELOPMENT AT ERASMUS,73,338,349,340,1027,35,9.1,61,15.8,46,8,4,1,336,87.3,35,9.1,4,1,237,61.6,148,38.4,40.6494997,-73.9581617
17K539,HIGH SCHOOL FOR SERVICE & LEARNING AT ERASMUS,61,362,375,368,1105,37,8.8,81,19.2,51,12,9,2.1,367,87,38,9,7,1.7,267,63.3,155,36.7,40.6493,-73.958
17K543,"SCIENCE, TECHNOLOGY AND RESEARCH EARLY COLLEGE HIGH SCHOOL AT ERASMUS",69,457,462,441,1360,0,0,12,2.3,6,0,16,3.1,437,83.9,49,9.4,7,1.3,276,53,245,47,40.6495006,-73.9571733
17K544,INTERNATIONAL ARTS BUSINESS SCHOOL,54,386,391,369,1146,31,7.9,68,17.4,24,24,3,0.8,339,86.9,39,10,5,1.3,187,47.9,203,52.1,40.658665,-73.943838
17K546,HIGH SCHOOL FOR PUBLIC SERVICE: HEROES OF TOMORROW,79,418,441,414,1273,2,0.5,17,4.1,2,1,15,3.6,344,82.5,51,12.2,3,0.7,104,24.9,313,75.1,40.6593652,-73.9431462
17K547,BROOKLYN ACADEMY OF SCIENCE AND THE ENVIRONMENT,63,388,382,373,1143,32,6.8,56,11.9,33,12,19,4,375,79.6,67,14.2,7,1.5,256,54.4,215,45.6,40.6700279,-73.9610552
17K548,BROOKLYN SCHOOL FOR MUSIC & THEATRE,48,385,393,373,1151,2,0.5,50,12.1,38,3,4,1,341,82.8,63,15.3,4,1,135,32.8,277,67.2,40.6700279,-73.9610552
17K568,BROWNSVILLE ACADEMY HIGH SCHOOL,16,372,356,335,1063,7,3.1,19,8.5,5,3,3,1.3,188,84.3,22,9.9,3,1.3,84,37.7,139,62.3,40.6663679,-73.9241023
17K590,MEDGAR EVERS COLLEGE PREPARATORY SCHOOL,165,476,481,479,1436,0,0,5,0.5,0,0,10,0.9,1056,95.7,31,2.8,0,0,461,41.8,643,58.2,40.6669914,-73.9511135
17K600,CLARA BARTON HIGH SCHOOL,259,425,413,413,1251,134,8.3,205,12.7,51,133,29,1.8,1466,91.2,93,5.8,11,0.7,382,23.8,1226,76.2,40.6695301,-73.9618677
17K625,PAUL ROBESON HIGH SCHOOL,53,365,363,355,1083,11,3.4,83,25.5,33,31,3,0.9,284,87.1,31,9.5,5,1.5,179,54.9,147,45.1,40.6755,-73.939
18K563,IT TAKES A VILLAGE ACADEMY,56,313,320,330,963,116,30.4,44,11.5,30,3,7,1.8,355,92.9,17,4.5,2,0.5,187,49,195,51,40.6480567,-73.9222339
18K566,BROOKLYN GENERATION SCHOOL,29,374,377,394,1145,19,5.7,65,19.6,49,10,5,1.5,294,88.8,28,8.5,3,0.9,202,61,129,39,40.6335392,-73.9174421
18K567,BROOKLYN THEATRE ARTS HIGH SCHOOL,54,383,358,377,1118,19,5,71,18.6,58,7,2,0.5,322,84.3,49,12.8,8,2.1,138,36.1,244,63.9,40.6335392,-73.9174421
18K569,KURT HAHN EXPEDITIONARY LEARNING SCHOOL,43,368,378,346,1092,28,9.5,59,20.1,41,6,0,0,259,88.1,26,8.8,5,1.7,189,64.3,105,35.7,40.6480464,-73.9222115
18K576,VICTORY COLLEGIATE HIGH SCHOOL,63,387,377,379,1143,17,5.2,54,16.6,40,8,1,0.3,304,93.5,19,5.8,0,0,159,48.9,166,51.1,40.6335392,-73.9174421
18K578,BROOKLYN BRIDGE ACADEMY,17,384,362,351,1097,6,2.8,24,11.1,16,3,2,0.9,191,88,20,9.2,2,0.9,127,58.5,90,41.5,40.6335512,-73.9174551
18K589,ARTS & MEDIA PREPARATORY ACADEMY,48,361,360,359,1080,10,3.4,51,17.4,23,7,2,0.7,262,89.4,28,9.6,0,0,139,47.4,154,52.6,40.6587,-73.9288
18K617,HIGH SCHOOL FOR INNOVATION IN ADVERTISING AND MEDIA,37,404,393,386,1183,25,8.1,56,18.1,25,15,4,1.3,266,85.8,33,10.6,4,1.3,206,66.5,104,33.5,40.6409517,-73.8976898
18K629,CULTURAL ACADEMY FOR THE ARTS AND SCIENCES,33,393,395,381,1169,23,7.7,55,18.4,43,7,4,1.3,259,86.6,34,11.4,2,0.7,154,51.5,145,48.5,40.6480444,-73.9222286
18K633,HIGH SCHOOL FOR MEDICAL PROFESSIONS,75,386,380,393,1159,15,3.3,48,10.4,36,7,8,1.7,391,85,57,12.4,1,0.2,99,21.5,361,78.5,40.6405452,-73.8979342
18K635,OLYMPUS ACADEMY,7,400,370,370,1140,3,1.5,19,9.4,4,0,2,1,175,86.2,23,11.3,2,1,102,50.2,101,49.8,40.6460402,-73.8982567
18K637,ACADEMY FOR CONSERVATION AND THE ENVIRONMENT,35,363,381,367,1111,19,6.9,46,16.8,34,10,6,2.2,230,83.9,33,12,4,1.5,150,54.7,124,45.3,40.6335392,-73.9174422
18K642,URBAN ACTION ACADEMY,40,376,385,374,1135,34,11.1,38,12.5,27,9,7,2.3,251,82.3,32,10.5,12,3.9,191,62.6,114,37.4,40.640423,-73.8984517
18K673,EAST BROOKLYN COMMUNITY HIGH SCHOOL,12,410,403,378,1191,1,0.5,18,8.9,4,1,2,1,180,88.7,19,9.4,1,0.5,106,52.2,97,47.8,40.6597946,-73.9206428
19K409,EAST NEW YORK FAMILY ACADEMY,54,416,432,394,1242,2,0.5,9,2.1,6,0,2,0.5,291,67.2,131,30.3,6,1.4,187,43.2,246,56.8,40.6610312,-73.8869552
19K502,FDNY HIGH SCHOOL FOR FIRE AND LIFE SAFETY,37,341,349,333,1023,19,5,80,21,52,11,4,1,281,73.8,89,23.4,6,1.6,309,81.1,72,18.9,40.6675989,-73.8947925
19K504,HIGH SCHOOL FOR CIVIL RIGHTS,47,363,349,342,1054,39,9.7,65,16.2,35,14,8,2,298,74.3,89,22.2,4,1,218,54.4,183,45.6,40.6668454,-73.8952889
19K507,PERFORMING ARTS AND TECHNOLOGY HIGH SCHOOL,61,380,386,383,1149,22,4.9,89,19.6,41,26,3,0.7,369,81.5,79,17.4,0,0,233,51.4,220,48.6,40.6668454,-73.8952889
19K510,WORLD ACADEMY FOR TOTAL COMMUNITY HEALTH HIGH SCHOOL,68,371,365,370,1106,16,4.2,56,14.7,34,13,8,2.1,308,81.1,54,14.2,5,1.3,140,36.8,240,63.2,40.6668454,-73.8952889
19K583,MULTICULTURAL HIGH SCHOOL,29,279,322,286,887,384,94.6,4,1,0,0,0,0,1,0.2,405,99.8,0,0,202,49.8,204,50.2,40.6930052,-73.8690682
19K615,TRANSIT TECH CAREER AND TECHNICAL EDUCATION HIGH SCHOOL,182,395,418,380,1193,32,2.4,187,14.2,61,66,58,4.4,928,70.5,306,23.2,20,1.5,1107,84.1,210,15.9,40.678748,-73.8752132
19K618,ACADEMY OF INNOVATIVE TECHNOLOGY,60,371,371,354,1096,49,12.1,78,19.3,32,17,30,7.4,155,38.4,203,50.2,12,3,284,70.3,120,29.7,40.6928503,-73.8689912
19K639,BROOKLYN LAB SCHOOL,57,360,385,363,1108,61,15.4,77,19.4,45,21,6,1.5,122,30.7,258,65,5,1.3,232,58.4,165,41.6,40.6928503,-73.8689912
19K659,CYPRESS HILLS COLLEGIATE PREPARATORY SCHOOL,51,376,385,368,1129,71,16.2,51,11.7,24,13,36,8.2,74,16.9,320,73.2,6,1.4,209,47.8,228,52.2,40.6930052,-73.8690682
19K660,W. H. MAXWELL CAREER AND TECHNICAL EDUCATION HIGH SCHOOL,74,370,369,363,1102,31,5.3,157,26.6,30,93,3,0.5,424,71.9,150,25.4,4,0.7,176,29.8,414,70.2,40.6738562,-73.8961578
19K683,"THE SCHOOL FOR CLASSICS: AN ACADEMY OF THINKERS, WRITERS AND PERFORMERS",38,383,400,374,1157,28,9,55,17.7,9,34,31,10,169,54.3,108,34.7,2,0.6,117,37.6,194,62.4,40.6695156,-73.8741107
20K445,NEW UTRECHT HIGH SCHOOL,456,402,471,399,1272,755,23,511,15.6,170,182,1176,35.9,181,5.5,916,28,1000,30.5,1943,59.3,1333,40.7,40.6134264,-74.0029406
20K485,HIGH SCHOOL OF TELECOMMUNICATION ARTS AND TECHNOLOGY,238,425,474,424,1323,63,4.9,248,19.4,110,46,246,19.2,121,9.5,692,54.1,215,16.8,685,53.5,595,46.5,40.6368371,-74.0233013
20K490,FORT HAMILTON HIGH SCHOOL,694,417,478,411,1306,908,21.2,547,12.8,175,270,1297,30.3,214,5,1292,30.2,1464,34.2,2282,53.4,1993,46.6,40.6271178,-74.0392943
20K505,FRANKLIN DELANO ROOSEVELT HIGH SCHOOL,385,383,486,375,1244,1223,39.4,336,10.8,73,186,1373,44.2,292,9.4,848,27.3,578,18.6,1816,58.4,1292,41.6,40.6213242,-73.9825025
21K337,INTERNATIONAL HIGH SCHOOL AT LAFAYETTE,54,326,386,314,1026,306,89.2,1,0.3,0,1,144,42,48,14,72,21,78,22.7,202,58.9,141,41.1,40.5936235,-73.9861442
21K344,RACHEL CARSON HIGH SCHOOL FOR COASTAL STUDIES,54,402,427,408,1237,53,11,77,16,44,4,59,12.3,116,24.1,124,25.8,181,37.6,258,53.6,223,46.4,40.582487,-73.9718778
21K348,HIGH SCHOOL OF SPORTS MANAGEMENT,39,388,398,378,1164,9,2.4,54,14.6,35,11,10,2.7,253,68.4,85,23,22,5.9,329,88.9,41,11.1,40.5935726,-73.985987
21K410,ABRAHAM LINCOLN HIGH SCHOOL,475,396,437,393,1226,434,16.7,299,11.5,98,126,500,19.3,911,35.1,522,20.1,652,25.1,1463,56.4,1132,43.6,40.5823896,-73.9686225
21K525,EDWARD R. MURROW HIGH SCHOOL,727,468,496,467,1431,365,9.1,568,14.1,195,249,1089,27.1,970,24.1,707,17.6,1237,30.8,1707,42.4,2315,57.6,40.6197592,-73.9591139
21K540,JOHN DEWEY HIGH SCHOOL,448,404,468,390,1262,425,19.6,189,8.7,61,83,848,39.1,663,30.6,414,19.1,235,10.8,1116,51.5,1052,48.5,40.5874871,-73.9820566
21K559,LIFE ACADEMY HIGH SCHOOL FOR FILM AND MUSIC,40,384,375,365,1124,12,4.8,51,20.3,40,6,12,4.8,112,44.6,75,29.9,51,20.3,128,51,123,49,40.5935726,-73.985987
21K572,EXPEDITIONARY LEARNING SCHOOL FOR COMMUNITY LEADERS,40,353,370,356,1079,49,21.7,37,16.4,30,3,44,19.5,44,19.5,93,41.2,44,19.5,116,51.3,110,48.7,40.5935726,-73.985987
21K620,WILLIAM E. GRADY CAREER AND TECHNICAL EDUCATION HIGH SCHOOL,95,394,414,376,1184,30,3.1,217,22.7,64,100,31,3.2,716,74.9,134,14,66,6.9,746,78,210,22,40.5832553,-73.9634295
21K690,BROOKLYN STUDIO SECONDARY SCHOOL,119,429,449,435,1313,74,8.4,164,18.7,117,3,112,12.8,63,7.2,202,23.1,495,56.5,439,50.1,437,49.9,40.6048465,-73.9947464
21K728,LIBERATION DIPLOMA PLUS,10,411,369,373,1153,3,1.6,12,6.3,0,1,5,2.6,84,44,72,37.7,29,15.2,80,41.9,111,58.1,40.5771269,-73.985817
22K405,MIDWOOD HIGH SCHOOL,824,478,519,476,1473,141,3.7,198,5.2,79,68,1216,31.7,1352,35.2,449,11.7,813,21.2,1739,45.3,2103,54.7,40.632833,-73.9523773
22K425,JAMES MADISON HIGH SCHOOL,518,436,475,439,1350,406,13.2,381,12.4,180,118,640,20.8,550,17.9,447,14.5,1428,46.4,1674,54.4,1402,45.6,40.6101,-73.948
22K495,SHEEPSHEAD BAY HIGH SCHOOL,236,383,392,370,1145,419,21.7,252,13.1,87,122,231,12,1192,61.8,305,15.8,195,10.1,1025,53.2,903,46.8,40.59314,-73.936638
22K535,LEON M. GOLDSTEIN HIGH SCHOOL FOR THE SCIENCES,259,524,561,542,1627,5,0.5,75,7.3,37,0,138,13.5,96,9.4,110,10.8,670,65.6,421,41.2,601,58.8,40.5804398,-73.9351854
22K555,BROOKLYN COLLEGE ACADEMY,131,456,456,440,1352,1,0.2,11,1.7,0,0,37,5.9,491,77.9,78,12.4,17,2.7,229,36.3,401,63.7,40.6492022,-73.9718961
23K493,BROOKLYN COLLEGIATE: A COLLEGE BOARD SCHOOL,60,389,409,387,1185,9,1.6,70,12.1,8,27,11,1.9,511,88.1,48,8.3,3,0.5,294,50.7,286,49.3,40.6744933,-73.9132462
23K514,FREDERICK DOUGLASS ACADEMY VII HIGH SCHOOL,55,361,371,359,1091,5,1.4,74,20.3,31,21,3,0.8,323,88.5,38,10.4,0,0,177,48.5,188,51.5,40.6655301,-73.9120609
23K643,BROOKLYN DEMOCRACY ACADEMY,11,349,338,331,1018,5,2.4,33,16.1,23,4,3,1.5,176,85.9,24,11.7,1,0.5,98,47.8,107,52.2,40.6558268,-73.9066342
23K646,ASPIRATIONS DIPLOMA PLUS HIGH SCHOOL,7,311,371,311,993,6,2.2,20,7.3,13,1,4,1.5,214,77.8,55,20,1,0.4,127,46.2,148,53.8,40.6693331,-73.9554038
23K647,METROPOLITAN DIPLOMA PLUS HIGH SCHOOL,17,350,346,332,1028,2,1.1,16,8.8,12,1,0,0,156,86.2,25,13.8,0,0,88,48.6,93,51.4,40.6557612,-73.9069007
23K697,TEACHERS PREPARATORY HIGH SCHOOL,69,392,416,388,1196,10,1.8,62,11,3,35,4,0.7,480,84.8,74,13.1,7,1.2,193,34.1,373,65.9,40.6655123,-73.9119789
24Q264,ACADEMY OF FINANCE AND ENTERPRISE,89,405,454,421,1280,33,7.9,41,9.8,28,2,75,17.9,41,9.8,237,56.4,64,15.2,207,49.3,213,50.7,40.7444771,-73.9367909
24Q267,HIGH SCHOOL OF APPLIED COMMUNICATION,39,406,413,400,1219,40,10.3,63,16.2,30,2,54,13.9,50,12.9,222,57.2,62,16,170,43.8,218,56.2,40.7448591,-73.9369449
24Q293,CIVIC LEADERSHIP ACADEMY,69,404,429,407,1240,41,9.1,83,18.5,43,4,35,7.8,41,9.1,356,79.3,15,3.3,200,44.5,249,55.5,40.743204,-73.871482
24Q296,PAN AMERICAN INTERNATIONAL HIGH SCHOOL,55,317,323,311,951,334,91.3,3,0.8,1,0,0,0,0,0,366,100,0,0,175,47.8,191,52.2,40.743329,-73.871507
24Q299,BARD HIGH SCHOOL EARLY COLLEGE II,155,545,568,550,1663,2,0.3,0,0,,,202,32,102,16.2,134,21.2,191,30.3,248,39.3,383,60.7,40.7183,-73.976
24Q455,NEWTOWN HIGH SCHOOL,320,383,440,380,1203,771,30,265,10.3,69,112,632,24.6,240,9.3,1552,60.3,137,5.3,1479,57.5,1093,42.5,40.740829,-73.87416
24Q485,GROVER CLEVELAND HIGH SCHOOL,241,395,420,396,1211,446,21.6,263,12.7,40,122,189,9.1,91,4.4,1313,63.5,469,22.7,1138,55,931,45,40.7113307,-73.908683
24Q520,MIDDLE COLLEGE HIGH SCHOOL AT LAGUARDIA COMMUNITY COLLEGE,58,399,393,385,1177,1,0.2,65,13.1,39,0,39,7.8,47,9.5,355,71.4,56,11.3,263,52.9,234,47.1,40.7433449,-73.933675
24Q530,INTERNATIONAL HIGH SCHOOL AT LAGUARDIA COMMUNITY COLLEGE,69,326,409,329,1064,377,76.5,0,0,,,212,43,10,2,217,44,51,10.3,227,46,266,54,40.7439998,-73.9350125
24Q550,HIGH SCHOOL FOR ARTS AND BUSINESS,138,391,403,380,1174,110,13.3,101,12.2,56,7,75,9.1,69,8.3,656,79.2,25,3,357,43.1,471,56.9,40.7376899,-73.8534401
24Q560,"ROBERT F. WAGNER, JR. SECONDARY SCHOOL FOR ARTS AND TECHNOLOGY",80,443,447,440,1330,23,3.8,74,12.3,46,2,125,20.8,37,6.2,375,62.4,63,10.5,280,46.6,321,53.4,40.7414438,-73.9369395
24Q600,QUEENS VOCATIONAL AND TECHNICAL HIGH SCHOOL,155,417,447,406,1270,88,6.4,187,13.7,70,62,140,10.2,94,6.9,1015,74.2,119,8.7,825,60.3,543,39.7,40.741992,-73.927947
24Q610,AVIATION CAREER & TECHNICAL EDUCATION HIGH SCHOOL,396,445,496,423,1364,71,3.2,117,5.3,27,49,597,27.1,150,6.8,1218,55.3,223,10.1,1877,85.3,324,14.7,40.7436,-73.9292
25Q252,"QUEENS SCHOOL OF INQUIRY, THE",58,455,498,443,1396,16,2.7,69,11.8,32,0,236,40.2,100,17,142,24.2,106,18.1,274,46.7,313,53.3,40.724191,-73.80937
25Q263,FLUSHING INTERNATIONAL HIGH SCHOOL,45,314,417,318,1049,374,88.6,3,0.7,2,0,272,64.5,5,1.2,138,32.7,7,1.7,242,57.3,180,42.7,40.7600404,-73.8180648
25Q281,EASTsWEST SCHOOL OF INTERNATIONAL STUDIES,59,416,463,392,1271,84,13.6,58,9.4,35,1,386,62.7,91,14.8,110,17.9,21,3.4,333,54.1,283,45.9,40.74943,-73.82141
25Q285,WORLD JOURNALISM PREPARATORY: A COLLEGE BOARD SCHOOL,63,471,489,481,1441,5,0.8,106,17.8,55,0,115,19.3,50,8.4,121,20.3,307,51.6,251,42.2,344,57.8,40.7648343,-73.7897125
25Q425,JOHN BOWNE HIGH SCHOOL,558,397,451,395,1243,903,24.7,360,9.8,81,162,1257,34.3,702,19.2,1488,40.7,192,5.2,1801,49.2,1859,50.8,40.7387753,-73.8238923
25Q460,FLUSHING HIGH SCHOOL,347,393,441,382,1216,624,20,363,11.7,116,137,618,19.9,825,26.5,1551,49.8,101,3.2,1737,55.8,1376,44.2,40.7647694,-73.8263758
25Q525,TOWNSEND HARRIS HIGH SCHOOL,278,621,651,638,1910,0,0,2,0.2,1,0,633,55.5,67,5.9,147,12.9,280,24.6,330,28.9,810,71.1,40.7349867,-73.821365
25Q540,QUEENS ACADEMY HIGH SCHOOL,17,398,382,388,1168,26,6.4,36,8.9,6,2,64,15.8,171,42.3,145,35.9,22,5.4,240,59.4,164,40.6,40.765602,-73.828293
25Q670,ROBERT F. KENNEDY COMMUNITY HIGH SCHOOL,99,431,458,441,1330,54,7.5,133,18.4,55,7,205,28.4,83,11.5,255,35.4,177,24.5,388,53.8,333,46.2,40.7253501,-73.8113253
25Q792,NORTH QUEENS COMMUNITY HIGH SCHOOL,7,379,421,377,1177,3,1.5,23,11.6,2,1,20,10.1,84,42.4,66,33.3,28,14.1,90,45.5,108,54.5,40.7206577,-73.8194494
26Q415,BENJAMIN N. CARDOZO HIGH SCHOOL,888,480,545,489,1514,240,6.1,448,11.5,107,173,1788,45.7,718,18.4,727,18.6,657,16.8,1853,47.4,2059,52.6,40.7518919,-73.756601
26Q430,FRANCIS LEWIS HIGH SCHOOL,934,468,539,467,1474,546,13.2,511,12.3,168,214,2153,51.9,343,8.3,999,24.1,642,15.5,2043,49.2,2109,50.8,40.7407391,-73.7939348
26Q435,MARTIN VAN BUREN HIGH SCHOOL,334,391,397,384,1172,237,9.9,274,11.5,34,138,576,24.1,1348,56.4,360,15.1,69,2.9,1298,54.3,1092,45.7,40.7336309,-73.7391435
26Q495,BAYSIDE HIGH SCHOOL,708,462,523,464,1449,190,5.7,351,10.6,176,119,1494,45.2,419,12.7,737,22.3,647,19.6,1633,49.4,1675,50.6,40.7714489,-73.7810639
26Q566,"QUEENS HIGH SCHOOL OF TEACHING, LIBERAL ARTS AND THE SCIENCES",175,425,434,420,1279,30,2.5,166,13.9,77,18,285,23.8,554,46.3,201,16.8,147,12.3,548,45.8,648,54.2,40.744121,-73.728799
27Q260,FREDERICK DOUGLASS ACADEMY VI HIGH SCHOOL,87,387,385,373,1145,18,4,62,13.9,22,23,17,3.8,298,67,120,27,6,1.3,234,52.6,211,47.4,40.601532,-73.763979
27Q262,CHANNEL VIEW SCHOOL FOR RESEARCH,74,432,419,401,1252,8,1.3,67,10.5,33,12,36,5.7,351,55.2,175,27.5,71,11.2,325,51.1,311,48.9,40.5866656,-73.8234351
27Q302,"QUEENS HIGH SCHOOL FOR INFORMATION, RESEARCH, AND TECHNOLOGY",44,391,401,364,1156,33,10.6,50,16.1,23,14,13,4.2,187,60.3,93,30,14,4.5,169,54.5,141,45.5,40.601532,-73.763979
27Q308,ROBERT H. GODDARD HIGH SCHOOL OF COMMUNICATION ARTS AND TECHNOLOGY,93,423,426,416,1265,21,3.6,92,15.9,4,45,155,26.8,44,7.6,246,42.6,126,21.8,278,48.1,300,51.9,40.6712,-73.8457
27Q309,ACADEMY OF MEDICAL TECHNOLOGY: A COLLEGE BOARD SCHOOL,36,367,379,348,1094,56,10.6,74,14,46,20,48,9.1,277,52.6,180,34.2,17,3.2,231,43.8,296,56.2,40.6015311,-73.7639639
27Q323,SCHOLARS' ACADEMY,89,499,537,496,1532,0,0,11,1,2,0,234,22,204,19.2,169,15.9,442,41.6,466,43.9,596,56.1,40.5842665,-73.8251698
27Q400,AUGUST MARTIN HIGH SCHOOL,101,377,371,360,1108,44,4.3,170,16.5,36,85,64,6.2,822,79.9,118,11.5,17,1.7,568,55.2,461,44.8,40.6747641,-73.7832326
27Q410,BEACH CHANNEL HIGH SCHOOL,78,384,396,354,1134,77,11.3,149,21.8,43,63,14,2,320,46.8,303,44.3,43,6.3,393,57.5,291,42.5,40.5863283,-73.8234859
27Q475,RICHMOND HILL HIGH SCHOOL,404,382,404,368,1154,451,17.4,355,13.7,87,135,850,32.9,433,16.8,1200,46.4,82,3.2,1369,53,1216,47,40.6949616,-73.8340778
27Q480,JOHN ADAMS HIGH SCHOOL,403,391,409,392,1192,543,16,411,12.1,136,147,930,27.5,937,27.7,1256,37.1,122,3.6,1845,54.5,1541,45.5,40.6786662,-73.8370002
27Q650,"HIGH SCHOOL FOR CONSTRUCTION TRADES, ENGINEERING AND ARCHITECTURE",194,429,491,425,1345,4,0.4,54,5.8,19,0,284,30.7,104,11.3,384,41.6,142,15.4,622,67.3,302,32.7,40.6892334,-73.8412058
28Q310,QUEENS COLLEGIATE: A COLLEGE BOARD SCHOOL,68,420,445,400,1265,43,8.1,65,12.3,38,1,143,27,259,49,98,18.5,16,3,264,49.9,265,50.1,40.7141939,-73.7979008
28Q338,QUEENS SATELLITE HIGH SCHOOL FOR OPPORTUNITY,6,403,408,367,1178,5,2,15,6,0,1,6,2.4,154,61.4,44,17.5,25,10,114,45.4,137,54.6,40.7084786,-73.7996742
28Q350,JAMAICA GATEWAY TO THE SCIENCES,25,430,452,425,1307,10,4.5,16,7.1,6,3,101,45.1,82,36.6,34,15.2,6,2.7,104,46.4,120,53.6,40.7141835,-73.7978589
28Q440,FOREST HILLS HIGH SCHOOL,762,456,497,454,1407,343,8.9,433,11.3,151,147,1017,26.5,346,9,1157,30.2,1292,33.7,1845,48.1,1989,51.9,40.7297115,-73.8449259
28Q470,JAMAICA HIGH SCHOOL,90,342,368,353,1063,166,29.4,79,14,24,34,175,31,235,41.7,146,25.9,6,1.1,332,58.9,232,41.1,40.7144332,-73.7982524
28Q505,HILLCREST HIGH SCHOOL,462,395,413,386,1194,467,15,279,9,138,40,1134,36.5,1136,36.6,708,22.8,91,2.9,1429,46.1,1674,53.9,40.7095,-73.8025
28Q620,THOMAS A. EDISON CAREER AND TECHNICAL EDUCATION HIGH SCHOOL,422,452,478,442,1372,32,1.4,257,11.4,43,111,1147,50.9,534,23.7,476,21.1,71,3.2,1465,65.1,787,34.9,40.7162714,-73.7983076
28Q680,QUEENS GATEWAY TO HEALTH SCIENCES SECONDARY SCHOOL,99,513,523,502,1538,1,0.1,13,1.7,0,12,286,36.5,351,44.8,123,15.7,21,2.7,298,38.1,485,61.9,40.7184027,-73.8058922
28Q687,QUEENS HIGH SCHOOL FOR THE SCIENCES AT YORK COLLEGE,121,612,660,596,1868,1,0.2,1,0.2,0,0,311,74.4,44,10.5,33,7.9,28,6.7,236,56.5,182,43.5,40.7009286,-73.7983153
28Q690,HIGH SCHOOL FOR LAW ENFORCEMENT AND PUBLIC SAFETY,74,406,406,384,1196,11,2.1,89,16.6,21,42,45,8.4,395,73.7,81,15.1,7,1.3,284,53,252,47,40.6859426,-73.783534
28Q896,"YOUNG WOMEN'S LEADERSHIP SCHOOL, QUEENS",68,439,445,432,1316,14,2.7,46,9,6,1,107,21,292,57.3,94,18.4,12,2.4,0,0,510,100,40.7083882,-73.8041518
29Q248,QUEENS PREPARATORY ACADEMY,52,360,380,359,1099,20,4.5,50,11.3,31,6,23,5.2,372,84.4,36,8.2,4,0.9,247,56,194,44,40.6682743,-73.7568698
29Q259,PATHWAYS COLLEGE PREPARATORY SCHOOL: A COLLEGE BOARD SCHOOL,46,401,397,375,1173,13,2.3,89,16,39,18,12,2.2,523,94.2,16,2.9,4,0.7,296,53.3,259,46.7,40.7057537,-73.7527082
29Q265,EXCELSIOR PREPARATORY HIGH SCHOOL,49,402,398,402,1202,10,2.3,65,14.7,43,9,19,4.3,367,82.8,43,9.7,2,0.5,252,56.9,191,43.1,40.6680413,-73.7579342
29Q272,GEORGE WASHINGTON CARVER HIGH SCHOOL FOR THE SCIENCES,59,436,427,424,1287,8,1.7,43,9.1,26,4,44,9.3,350,73.8,67,14.1,6,1.3,224,47.3,250,52.7,40.6679692,-73.7580558
29Q283,PREPARATORY ACADEMY FOR WRITERS: A COLLEGE BOARD SCHOOL,43,370,367,363,1100,9,1.9,68,14.4,20,25,16,3.4,398,84.1,49,10.4,4,0.8,204,43.1,269,56.9,40.6679692,-73.7580558
29Q492,"MATHEMATICS, SCIENCE RESEARCH AND TECHNOLOGY MAGNET HIGH SCHOOL",78,400,426,394,1220,21,5.1,43,10.4,0,22,28,6.8,328,79.6,49,11.9,3,0.7,249,60.4,163,39.6,40.6981894,-73.7460088
29Q494,"LAW, GOVERNMENT AND COMMUNITY SERVICE HIGH SCHOOL",52,385,377,377,1139,13,2.9,63,13.9,3,36,20,4.4,378,83.3,48,10.6,4,0.9,221,48.7,233,51.3,40.698328,-73.74615
29Q496,"BUSINESS, COMPUTER APPLICATIONS & ENTREPRENEURSHIP HIGH SCHOOL",49,379,414,359,1152,23,6.5,67,19,6,30,22,6.2,301,85.3,19,5.4,3,0.8,237,67.1,116,32.9,40.698328,-73.74615
29Q498,HUMANITIES & ARTS MAGNET HIGH SCHOOL,62,393,381,377,1151,17,3.5,71,14.8,34,9,19,4,413,85.9,41,8.5,7,1.5,206,42.8,275,57.2,40.6982,-73.746
30Q301,ACADEMY FOR CAREERS IN TELEVISION AND FILM,98,410,440,405,1255,12,2.9,61,14.6,35,4,25,6,86,20.5,224,53.5,79,18.9,223,53.2,196,46.8,40.7429183,-73.9594398
30Q445,WILLIAM CULLEN BRYANT HIGH SCHOOL,395,414,449,412,1275,527,17.9,355,12.1,72,176,852,28.9,216,7.3,1438,48.8,427,14.5,1581,53.7,1364,46.3,40.7576896,-73.9103777
30Q450,LONG ISLAND CITY HIGH SCHOOL,392,403,420,395,1218,448,13.2,466,13.8,169,186,448,13.2,387,11.4,2122,62.7,423,12.5,1738,51.3,1648,48.7,40.7654697,-73.9330529
30Q501,FRANK SINATRA SCHOOL OF THE ARTS HIGH SCHOOL,174,504,496,494,1494,1,0.1,14,1.9,0,0,66,8.7,128,16.9,206,27.2,350,46.3,227,30,529,70,40.7560972,-73.9251655
30Q502,INFORMATION TECHNOLOGY HIGH SCHOOL,148,407,434,398,1239,88,9.6,147,16,57,44,143,15.6,166,18.1,519,56.6,86,9.4,658,71.8,259,28.2,40.7484914,-73.946552
30Q555,NEWCOMERS HIGH SCHOOL,143,323,475,329,1127,842,90.3,0,0,,,450,48.3,52,5.6,405,43.5,24,2.6,496,53.2,436,46.8,40.7514349,-73.9369976
30Q575,ACADEMY OF AMERICAN STUDIES,135,487,492,491,1470,40,5.7,56,8,27,7,205,29.1,48,6.8,244,34.7,207,29.4,317,45,387,55,40.7512433,-73.9374847
30Q580,BACCALAUREATE SCHOOL FOR GLOBAL EDUCATION,61,524,568,544,1636,0,0,1,0.2,0,0,153,34.8,14,3.2,107,24.3,164,37.3,197,44.8,243,55.2,40.7551568,-73.9269736
31R047,CSI HIGH SCHOOL FOR INTERNATIONAL STUDIES,137,452,451,450,1353,1,0.2,74,13.9,37,7,61,11.5,64,12,95,17.9,311,58.5,221,41.5,311,58.5,40.5819075,-74.1590049
31R064,GAYNOR MCCOWN EXPEDITIONARY LEARNING SCHOOL,61,398,412,385,1195,4,1,93,22.8,42,4,24,5.9,64,15.7,72,17.6,245,60,212,52,196,48,40.581969,-74.1593599
31R080,THE MICHAEL J. PETRIDES SCHOOL,107,472,488,466,1426,21,1.6,242,18.5,34,33,106,8.1,246,18.8,221,16.9,731,55.9,644,49.2,664,50.8,40.6081534,-74.1055942
31R440,NEW DORP HIGH SCHOOL,391,424,437,416,1277,156,5.9,448,16.9,106,151,186,7,322,12.1,726,27.3,1416,53.3,1395,52.5,1263,47.5,40.5695781,-74.1073767
31R445,PORT RICHMOND HIGH SCHOOL,271,424,438,417,1279,114,5.3,450,20.9,96,172,146,6.8,664,30.9,809,37.6,521,24.2,1178,54.8,973,45.2,40.634843,-74.142015
31R450,CURTIS HIGH SCHOOL,375,437,435,429,1301,155,6.1,374,14.7,59,172,187,7.3,980,38.4,814,31.9,557,21.8,1183,46.4,1369,53.6,40.645186,-74.0816561
31R455,TOTTENVILLE HIGH SCHOOL,807,462,486,470,1418,55,1.4,540,13.9,214,153,210,5.4,82,2.1,385,9.9,3181,82.1,1923,49.6,1952,50.4,40.5279,-74.1933
31R460,SUSAN E. WAGNER HIGH SCHOOL,535,455,474,459,1388,111,3.4,611,18.8,94,308,475,14.6,367,11.3,782,24.1,1602,49.4,1647,50.8,1596,49.2,40.5972873,-74.1251624
31R470,CONCORD HIGH SCHOOL,10,466,455,414,1335,4,2.2,31,17.3,7,3,3,1.7,68,38,71,39.7,35,19.6,82,45.8,97,54.2,40.6107,-74.0865
31R600,RALPH R. MCKEE CAREER AND TECHNICAL EDUCATION HIGH SCHOOL,94,416,422,397,1235,24,3.6,177,26.2,36,69,31,4.6,272,40.3,224,33.2,146,21.6,453,67.1,222,32.9,40.6427954,-74.0792526
31R605,STATEN ISLAND TECHNICAL HIGH SCHOOL,227,635,682,636,1953,1,0.1,6,0.5,1,0,351,31.8,12,1.1,59,5.3,677,61.3,629,57,475,43,40.5679259,-74.1156914
32K403,ACADEMY FOR ENVIRONMENTAL LEADERSHIP,50,380,366,352,1098,119,32.9,64,17.7,23,36,2,0.6,76,21,279,77.1,3,0.8,181,50,181,50,40.6970064,-73.9117456
32K545,EBC HIGH SCHOOL FOR PUBLIC SERVICEBUSHWICK,88,384,409,361,1154,93,15.3,74,12.2,28,30,10,1.7,56,9.2,534,88.1,4,0.7,316,52.1,290,47.9,40.6947519,-73.9292674
32K549,BUSHWICK SCHOOL FOR SOCIAL JUSTICE,75,348,353,334,1035,79,18.2,80,18.4,46,23,2,0.5,123,28.3,298,68.7,8,1.8,210,48.4,224,51.6,40.6968124,-73.9117231
32K552,ACADEMY OF URBAN PLANNING,67,342,364,354,1060,95,23.9,88,22.1,26,47,6,1.5,105,26.4,280,70.4,4,1,217,54.5,181,45.5,40.6968124,-73.9117231
32K554,ALL CITY LEADERSHIP SECONDARY SCHOOL,39,428,465,422,1315,7,2.7,13,4.9,1,2,14,5.3,34,12.9,209,79.5,4,1.5,137,52.1,126,47.9,40.6975906,-73.9130973
32K556,BUSHWICK LEADERS HIGH SCHOOL FOR ACADEMIC EXCELLENCE,23,347,358,350,1055,84,18.2,86,18.6,4,51,4,0.9,98,21.2,357,77.3,0,0,246,53.2,216,46.8,40.6953387,-73.9274444
32K564,BUSHWICK COMMUNITY HIGH SCHOOL,24,359,317,358,1034,20,5.2,36,9.4,14,1,1,0.3,137,35.9,235,61.5,7,1.8,169,44.2,213,55.8,40.6957625,-73.9153202